Country,City,Region,Population,Latitude,Longitude
ad,la massana,04,7211,42.55,1.5166667
ad,les escaldes,08,15854,42.5,1.5333333
ad,ordino,05,2553,42.55,1.5333333
ad,sant julia de loria,06,8020,42.4666667,1.5
ae,abu dhabi,01,603687,24.466667,54.366667
ae,dubai,03,1137376,25.258172,55.304717
ae,sharjah,06,543942,25.35731,55.403304
af,acin,18,15098,34.082481,70.668152
af,anar darreh,06,10023,32.758698,61.653969
af,andarab,03,27034,35.633484,69.260195
af,asadabad,34,48400,34.873113,71.14697
af,asmar,34,15708,35.033328,71.358087
af,aybak,32,47877,36.26468,68.015512
af,azrow,17,12526,34.173553,69.645728
af,baglan,03,108481,36.130684,68.708286
af,bagrami,13,30256,34.493761,69.274274
af,baraki barak,17,22305,33.9675,68.948611
af,cah ab,26,23424,37.397734,69.814644
af,carikar,40,53693,35.016585,69.174011
af,ciras,33,12778,35.416737,65.982341
af,dawlatabad,07,13603,36.432589,64.920713
af,dawlatabad,30,17674,36.98782,66.82066
af,deh rawud,39,25683,32.624131,65.459659
af,eskasem,01,12120,36.706932,71.570658
af,farah,06,43574,32.374508,62.116383
af,gardan diwal,27,6815,34.508977,68.260739
af,gardez,36,103732,33.597439,69.225922
af,gazni,08,143049,33.550833,68.4225
af,geresk,10,43638,31.820894,64.57
af,herat,11,272880,34.348167,62.2
af,jalalabad,18,200389,34.426468,70.45153
af,jurm,01,12121,36.864768,70.834207
af,kabul,13,3043589,34.516667,69.183333
af,kholm,30,64954,36.697362,67.698255
af,khowst,37,96246,33.339512,69.92041
af,kuhestan,11,12087,34.653889,61.197778
af,kusk,11,16952,33.29565,61.952206
af,lar gerd,33,11635,35.489361,66.664088
af,mehtar lam,35,17350,34.671389,70.209444
af,mirabad,19,14160,30.436244,61.838304
af,nahrin,03,22389,36.064904,69.13343
af,nuristan,38,17072,34.95,70.4
af,orgun,29,10665,32.901111,69.152798
af,pagman,13,49173,34.5875,68.953333
af,panjab,05,13471,34.387949,67.023273
af,qandahar,23,391230,31.613323,65.710126
af,qarchi gak,30,8942,37.04,66.788912
af,qarqin,31,15023,37.404464,66.074375
af,qunduz,24,161943,36.728955,68.857
af,rostaq,26,25644,37.126035,69.83045
af,rudbar,19,11034,30.15,62.6
af,sahrak,09,15967,34.107375,64.3052
af,sangin,10,13579,32.072752,64.835903
af,sar-e pul,33,52138,36.215443,65.932487
af,sharan,29,7368,33.146667,68.791667
af,shibarghan,31,55658,36.667567,65.752904
af,sindand,11,29273,33.302944,62.1474
af,tagab,14,6400,34.855,69.64917
af,taloqan,26,64275,36.734133,69.533559
af,taywarah,09,14398,33.521176,64.421156
af,tir pol,11,6979,34.594307,61.268951
af,tokzar,33,12021,35.948308,66.42132
af,uruzgan,39,13400,32.927751,66.632534
af,zaranj,19,33894,30.966667,61.883333
ag,all saints,06,2526,17.05,-61.8
ag,carlisle,03,831,17.1333333,-61.8
ag,codrington,01,682,17.6333333,-61.8333333
ag,freetown,08,623,17.05,-61.7
ag,liberta,06,1668,17.0333333,-61.7833333
ag,old road,05,623,17.0166667,-61.8333333
ag,parham,07,969,17.0833333,-61.7666667
ag,swetes,06,727,17.05,-61.8
ai,the valley,00,1379,18.2166667,-63.05
al,bajram curri,47,7967,42.3572222,20.0730556
al,ballsh,44,10361,40.5988889,19.7347222
al,berat,40,47606,40.7058333,19.9522222
al,bilisht,46,7114,40.6275,20.99
al,bulqize,41,11212,41.4916667,20.2219444
al,burrel,41,15539,41.6102778,20.0
al,cerrik,43,14269,41.0316667,19.9758333
al,corovode,40,14046,40.5041667,20.2272222
al,delvine,51,3916,39.9511111,20.0977778
al,durres,42,122034,41.3230556,19.4413889
al,elbasan,43,100903,41.1125,20.0822222
al,erseke,46,7890,40.3377778,20.6788889
al,fier,44,59719,40.7238889,19.5561111
al,fierze,47,742,42.2647222,20.0269444
al,fierze,49,742,42.2605556,20.0169444
al,fushe-arrez,49,2438,42.0622222,20.0166667
al,fushe-kruje,42,10458,41.4783333,19.7177778
al,gjirokaster,45,23437,40.0758333,20.1388889
al,gramsh,43,11556,40.8697222,20.1844444
al,himare,51,4596,40.1016667,19.7447222
al,kamze,50,11026,41.3816667,19.7602778
al,kavaje,50,29354,41.1855556,19.5569444
al,kelcyre,45,2486,40.3130556,20.1894444
al,kerrabe,50,1177,41.2155556,19.9713889
al,klos,41,683,41.4844444,20.1080556
al,konispol,51,1349,39.6588889,20.1813889
al,koplik,49,4078,42.2136111,19.4363889
al,korce,46,58259,40.6186111,20.7808333
al,kraste,41,1168,41.4225,20.205
al,kruje,42,21286,41.5091667,19.7927778
al,kucove,40,18166,40.8,19.9166667
al,kukes,47,17972,42.0769444,20.4219444
al,kurbnesh,48,1429,41.7797222,20.0836111
al,lac,48,24825,41.6355556,19.7130556
al,leskovik,46,2655,40.1513889,20.5972222
al,lezhe,48,18695,41.7836111,19.6436111
al,libohove,45,3651,40.0311111,20.2630556
al,librazhd,43,12691,41.1794444,20.315
al,lushnje,44,41423,40.9419444,19.705
al,maliq,46,3735,40.7058333,20.7
al,mamurras,48,8282,41.5775,19.6922222
al,memaliaj,45,4951,40.3458333,19.9791667
al,milot,48,2157,41.6802778,19.7244444
al,orikum,51,2604,40.3252778,19.4713889
al,patos,44,22679,40.6833333,19.6194444
al,peqin,43,7513,41.0461111,19.7511111
al,permet,45,10686,40.2336111,20.3516667
al,perrenjas,43,4015,41.0730556,20.5488889
al,peshkopi,41,15261,41.685,20.4288889
al,pogradec,46,25758,40.9025,20.6525
al,polican,40,10663,40.6122222,20.0980556
al,puke,49,6495,42.0444444,19.9
al,roskovec,44,6657,40.7375,19.7022222
al,rreshen,48,10064,41.7675,19.8755556
al,rrogozhine,50,5620,41.0763889,19.6652778
al,rubik,48,2332,41.7744444,19.7861111
al,sarande,51,15147,39.8755556,20.0
al,selenice,51,6912,40.5305556,19.6358333
al,shengjin,48,2698,41.8136111,19.5938889
al,shijak,42,14138,41.3455556,19.5672222
al,shkoder,49,89102,42.0675,19.5130556
al,tepelene,45,11955,40.2958333,20.0191667
al,tirana,50,374801,41.3275,19.8188889
al,ulze,41,600,41.6827778,19.8933333
al,vlore,51,89528,40.4666667,19.4897222
al,vore,50,4973,41.3908333,19.655
am,abovyan,02,1379,40.0488889,44.5475
am,abovyan,05,35677,40.2691667,44.6244444
am,agarakadzor,10,1195,39.7363889,45.3455556
am,agarak,01,1575,40.3077778,44.2847222
am,agarak,06,1278,41.0105556,44.4675
am,agarak,08,4707,39.2038889,46.5472222
am,aghavnadzor,05,1252,40.5841667,44.6913889
am,aghavnadzor,10,1925,39.7836111,45.2280556
am,aghavnatun,01,2913,40.2336111,44.2513889
am,akhuryan,07,7672,40.7813889,43.8963889
am,aknalich,03,2654,40.1430556,44.1483333
am,aknashen,03,1362,40.0958333,44.2861111
am,alaverdi,06,13186,41.1305556,44.6519444
am,amasia,07,1675,40.9466667,43.7813889
am,amberd,01,1267,40.2416667,44.2727778
am,anushavan,07,1532,40.6419444,43.9822222
am,apaga,03,1634,40.0961111,44.2511111
am,aparan,01,5670,40.5961111,44.3536111
am,aragats,01,2952,40.3330556,43.6580556
am,aragats,03,5092,40.2183333,44.2327778
am,aragyukh,05,999,40.4025,44.5436111
am,aramus,05,3214,40.2511111,44.6630556
am,arapi,07,1738,40.7797222,43.8
am,ararat,02,6554,39.8094444,44.7144444
am,arazap,03,1373,40.0427778,44.1458333
am,archis,09,1235,41.1641667,44.8725
am,areni,10,1718,39.7208333,45.1838889
am,arevabuyr,02,1041,40.0361111,44.4688889
am,arevashat,03,1403,40.1416667,44.3708333
am,arevashogh,06,2435,40.8613889,44.2727778
am,arevik,03,2455,40.1,44.0969444
am,arevik,07,1522,40.7361111,43.8927778
am,arevshat,02,2089,40.0391667,44.5416667
am,arevshat,07,1623,40.6486111,44.0444444
am,argavand,02,1703,40.1580556,44.44
am,argavand,03,2047,40.0608333,44.0952778
am,argel,05,2528,40.3794444,44.6
am,armash,10,2434,39.7666667,44.8083333
am,armavir,03,2752,40.0897222,44.0483333
am,arshaluys,03,3808,40.1688889,44.2141667
am,artashat,02,20562,39.9538889,44.5505556
am,arteni,01,3086,40.2983333,43.7541667
am,artimet,03,1501,40.1513889,44.2663889
am,artsvaberd,09,3193,40.8336111,45.4711111
am,artsvanist,04,2819,40.1544444,45.5022222
am,arzakan,05,2660,40.4494444,44.6063889
am,arzni,05,2244,40.2963889,44.5958333
am,ashnak,01,1131,40.3275,43.9166667
am,ashtarak,01,18779,40.3016667,44.3591667
am,astghadzor,04,3520,40.1238889,45.3566667
am,avshar,02,4215,39.8405556,44.6836111
am,aygavan,02,3758,39.8647222,44.6702778
am,aygedzor,08,2535,39.4627778,46.4152778
am,aygehovit,09,2888,40.9744444,45.2519444
am,aygek,03,1095,40.1886111,44.3833333
am,aygepat,02,1349,39.95,44.6
am,aygeshat,01,1358,40.2355556,44.2866667
am,aygeshat,03,1606,40.0666667,44.0666667
am,aygestan,02,2431,40.0,44.5575
am,aygezard,02,3192,39.9458333,44.6088889
am,aygut,04,997,40.6841667,45.1730556
am,ayrum,06,2174,41.195,44.8925
am,ayrum,09,2174,41.1716667,44.8191667
am,azatamut,09,1850,40.9758333,45.1980556
am,azatan,07,4448,40.7238889,43.8205556
am,azatavan,02,2886,39.9833333,44.5
am,azatavan,03,2886,40.1333333,44.0666667
am,baghramyan,03,1690,40.1908333,43.8494444
am,bagratashen,09,3024,41.2458333,44.8211111
am,balahovit,05,2982,40.2536111,44.6038889
am,bambakashat,03,3089,40.1144444,44.0122222
am,bardzrashen,02,1273,40.0852778,44.5786111
am,bazum,06,1114,40.8680556,44.4455556
am,berdavan,09,3150,41.2027778,45.0
am,berd,09,8374,40.8808333,45.3916667
am,brnakot,08,1912,39.4969444,45.9730556
am,brun,08,1028,39.5338889,46.3030556
am,buzhakan,05,1678,40.4552778,44.5205556
am,byurakan,01,3902,40.3413889,44.2736111
am,byuravan,02,1228,40.0161111,44.5186111
am,byureghavan,05,6972,40.3147222,44.5936111
am,chambarak,04,6153,40.5952778,45.3475
am,chochkan,06,1740,41.1861111,44.8313889
am,dalar,02,2504,39.9669444,44.5363889
am,dalarik,03,3080,40.2183333,43.8602778
am,darakert,02,2325,40.1058333,44.4138889
am,darpas,06,1785,40.8380556,44.4233333
am,dashtavan,02,1762,40.1016667,44.3905556
am,ddmashen,04,2157,40.5719444,44.8122222
am,dilijan,09,13480,40.7408333,44.8630556
am,dimitrov,02,1212,40.0,44.4880556
am,doghs,01,1186,40.2227778,44.2716667
am,drakhtik,04,1016,40.5688889,45.2319444
am,dsegh,06,2484,40.9633333,44.6516667
am,dvin,02,2795,40.02,44.5852778
am,dzitankov,07,1162,40.5155556,43.8133333
am,dzoraghbyur,05,2011,40.205,44.6430556
am,dzoragyukh,04,3570,40.1752778,45.175
am,fantan,05,1019,40.3941667,44.685
am,fioletovo,06,1264,40.7247222,44.7138889
am,gagarin,04,1305,40.5369444,44.8577778
am,gandzak,04,3841,40.3147222,45.1113889
am,garni,05,6827,40.1194444,44.7230556
am,gavar,04,21681,40.3588889,45.1266667
am,gay,02,3309,40.0838889,44.3055556
am,geghamasar,04,1060,40.3116667,45.68
am,geghamavan,04,1597,40.5619444,44.8827778
am,geghanist,02,2409,40.1497222,44.4344444
am,getahovit,09,2005,40.8958333,45.1313889
am,getashen,03,2114,40.0433333,43.9447222
am,getazat,02,1947,40.0380556,44.5638889
am,ghukasavan,02,2113,40.1261111,44.4177778
am,gladzor,10,2080,39.7783333,45.3477778
am,gogaran,06,1088,40.8955556,44.2
am,goris,08,20379,39.5077778,46.3386111
am,gosh,09,994,40.7225,45.0
am,griboyedov,03,1879,40.1130556,44.2716667
am,gyulagarak,06,2109,40.9697222,44.4713889
am,gyumri,07,148383,40.7894444,43.8475
am,haghartsin,09,3370,40.7780556,44.9625
am,hayanist,03,2031,40.1197222,44.3775
am,haykashen,03,1140,40.0727778,44.3069444
am,haykavan,07,1201,40.7558333,43.77
am,hnaberd,01,1817,40.6427778,44.1444444
am,hoktember,03,5348,40.1361111,44.0138889
am,horom,07,1893,40.6541667,43.8822222
am,hovtashat,02,3472,40.1019444,44.3427778
am,hovtashen,02,1134,40.0244444,44.45
am,hrazdan,05,40796,40.5016667,44.7547222
am,ijevan,09,14737,40.8755556,45.1491667
am,janfida,03,2986,40.0455556,44.0208333
am,jermuk,10,4582,39.8416667,45.6722222
am,jrahovit,02,1032,40.0452778,44.4736111
am,jrashen,06,3078,40.7875,44.1972222
am,jrashen,11,1696,40.0547222,44.5133333
am,kamaris,05,2064,40.2358333,44.6938889
am,kamo,07,1340,40.8280556,43.9483333
am,kanakeravan,11,2950,40.2472222,44.5366667
am,kapan,08,33161,39.2011111,46.415
am,kaputan,05,1252,40.3244444,44.6938889
am,karbi,01,3521,40.3338889,44.3777778
am,karchaghbyur,04,2274,40.1638889,45.5722222
am,kasakh,01,4247,40.5333333,44.4166667
am,khashtarak,09,1728,40.9386111,45.1797222
am,khndzoresk,08,1940,39.5122222,46.4336111
am,kosh,01,2581,40.3072222,44.16
am,lanjaghbyur,04,2097,40.2730556,45.1444444
am,lchashen,04,4182,40.5202778,44.9308333
am,lenughi,03,1499,40.1238889,43.9652778
am,lernakert,07,1306,40.5669444,43.9361111
am,lernanist,05,2511,40.4675,44.7980556
am,lernantsk,06,1192,40.7955556,44.2783333
am,lernapat,06,1710,40.82,44.3972222
am,lernavan,06,1517,40.7883333,44.1844444
am,lorut,06,1101,40.9388889,44.7725
am,lukashin,01,2197,40.1758333,44.0186111
am,madina,04,1024,40.0802778,45.2511111
am,maisyan,07,1521,40.8530556,43.8294444
am,malishka,10,4174,39.7369444,45.3875
am,maralik,07,4959,40.5722222,43.8669444
am,margahovit,06,3308,40.7380556,44.6875
am,margara,03,1360,40.0336111,44.1738889
am,marmarashen,02,2946,40.0575,44.4711111
am,marmashen,07,1644,40.8375,43.7719444
am,martuni,04,11037,40.1447222,45.3063889
am,masis,02,18911,40.0138889,44.4858333
am,mayakovski,05,1727,40.2522222,44.6383333
am,meghradzor,05,2659,40.6147222,44.6522222
am,meghrashen,07,1107,40.6758333,43.9486111
am,meghri,08,4540,38.9022222,46.2383333
am,merdzavan,03,2702,40.1816667,44.4
am,metsamor,03,8789,40.0713889,44.2891667
am,metsavan,06,4767,41.2016667,44.2288889
am,mets masrik,04,2570,40.2186111,45.7694444
am,mets parni,06,1934,40.8372222,44.1091667
am,mosesgegh,09,1964,40.9063889,45.4913889
am,mrganush,02,1032,40.0286111,44.5586111
am,mrgashat,03,4961,40.1297222,44.0705556
am,mrgashen,05,1623,40.285,44.5422222
am,mrgavan,02,1713,39.9661111,44.5333333
am,mrgavet,02,2131,40.0283333,44.4827778
am,musaler,03,2323,40.1544444,44.3777778
am,musayelyan,07,1499,40.7652778,44.0
am,myasnikyan,03,3458,40.1775,43.9063889
am,nalbandyan,03,4019,40.0677778,43.9855556
am,navur,09,1227,40.8613889,45.3175
am,nizami,02,1060,40.0913889,44.4041667
am,norakert,01,2485,40.1922222,44.3466667
am,noramarg,02,1811,40.0236111,44.4244444
am,nor armavir,03,1597,40.0866667,44.0
am,norashen,02,3049,40.0,44.5947222
am,norashen,06,1386,41.1880556,44.3272222
am,noratus,04,5426,40.3822222,45.1783333
am,nor geghi,05,4896,40.3211111,44.5797222
am,nor gyukh,05,1462,40.2666667,44.6563889
am,nor yerznka,05,1459,40.3133333,44.4047222
am,noyakert,02,1751,39.8166667,44.6669444
am,noyemberyan,09,5119,41.1725,45.0
am,nshavan,02,1916,40.0263889,44.5252778
am,odzun,06,4524,41.0538889,44.6113889
am,oshakan,01,4768,40.2705556,44.2691667
am,paravakar,09,1637,40.9805556,45.4
am,pemzashen,07,2436,40.5933333,43.94
am,pokr mantash,07,1838,40.65,44.05
am,proshyan,05,4333,40.2480556,44.415
am,pshatavan,03,2159,40.0405556,44.0675
am,ptghni,05,1231,40.2566667,44.585
am,ranchpar,02,989,40.0252778,44.3702778
am,rind,10,1368,39.7597222,45.18
am,samaghar,03,2343,40.1852778,44.2422222
am,saramech,06,1111,40.7725,44.2191667
am,saratak,07,1115,40.67,43.8663889
am,sarigyukh,09,1096,41.0563889,45.1458333
am,sarukhan,04,6173,40.2891667,45.1341667
am,sasunik,01,1959,40.2472222,44.3380556
am,sevan,04,17083,40.555,44.9536111
am,shaghat,08,1011,39.5616667,45.9122222
am,shahumyan,02,3905,39.9308333,44.5783333
am,shahumyan,06,1843,40.7883333,44.5316667
am,shatin,10,1671,39.8333333,45.3016667
am,shenavan,01,1587,40.4861111,44.3825
am,shenavan,03,1757,40.05,43.9333333
am,shinuhayr,08,2206,39.4341667,46.3155556
am,shirakamut,06,2008,40.8605556,44.1527778
am,shirak,07,1007,40.8480556,43.9213889
am,shnogh,06,2872,41.1477778,44.8377778
am,sisavan,02,1793,39.9,44.6666667
am,sisian,08,15208,39.4627778,45.9730556
am,sis,02,1135,40.0586111,44.3863889
am,solak,05,2295,40.4636111,44.7086111
am,sovetakan,03,1613,40.1133333,44.0552778
am,spandaryan,07,1226,40.665,44.0188889
am,spitak,06,15063,40.7955556,44.2783333
am,surenavan,10,2241,39.75,44.8
am,talin,01,4945,40.3369444,43.8588889
am,tandzut,03,1816,40.0772222,44.0886111
am,taronik,03,1874,40.1330556,44.2
am,tashir,06,7318,41.1244444,44.2819444
am,tazagyukh,04,2248,40.1416667,45.1913889
am,tegh,08,2120,39.5547222,46.4758333
am,tsaghkaber,06,1207,40.7986111,44.1072222
am,tsaghkadzor,05,1408,40.5386111,44.7113889
am,tsaghkahovit,01,1551,40.6361111,44.2230556
am,tsiatsan,03,1050,40.1869444,44.2666667
am,tsovagyugh,04,3857,40.6330556,44.9522222
am,tsovak,04,2531,40.1819444,45.635
am,tsovazard,04,1949,40.4769444,45.0375
am,tsovinar,04,3968,40.1608333,45.4538889
am,tumanyan,06,1693,40.9633333,44.6516667
am,urut,06,1102,41.0711111,44.3969444
am,ushi,01,1276,40.3536111,44.3686111
am,vagharshapat,03,49514,40.1727778,44.2925
am,vaghashen,04,3235,40.1377778,45.3291667
am,vahagni,06,1184,40.9080556,44.6069444
am,vahan,04,1153,40.57,45.3955556
am,vanadzor,06,101099,40.8127778,44.4883333
am,vardablur,06,1297,40.95,44.4666667
am,vardadzor,11,2095,40.1916667,45.1875
am,vardenik,04,7709,40.135,45.4363889
am,vardenis,04,11382,40.1805556,45.7283333
am,varser,04,1614,40.5561111,44.9111111
am,vedi,02,12192,39.9105556,44.7277778
am,verin artashat,02,3931,40.0,44.585
am,verin dvin,02,1853,40.0252778,44.5908333
am,verin getashen,04,4173,40.1327778,45.2486111
am,verishen,08,2114,39.5358333,46.3119444
am,vernashen,10,1162,39.7938889,45.3633333
am,voskehask,07,1803,40.7383333,43.7758333
am,voskehat,03,2181,40.1413889,44.3291667
am,voskevan,09,1287,41.1191667,45.0652778
am,voskevaz,01,3789,40.2797222,44.295
am,vostan,02,2925,39.9588889,44.5591667
am,yeghegnavan,02,1221,39.8277778,44.6372222
am,yeghegnut,03,1746,40.0902778,44.1625
am,yeghegnut,06,1154,40.9041667,44.6325
am,yeghvard,05,10705,40.3216667,44.4813889
am,yeraskhahun,03,1346,40.0722222,44.2158333
am,yerazgavors,07,1285,40.7,43.75
am,yerevan,11,1093499,40.1811111,44.5136111
am,zangakatun,02,1130,39.8094444,45.0511111
am,zaritap,10,1323,39.6372222,45.5086111
am,zar,05,1340,40.2611111,44.7361111
am,zhdanov,03,1512,40.1616667,44.0883333
am,zorak,02,1390,40.0925,44.3919444
am,zoravan,05,1167,40.3569444,44.5230556
am,zovaber,04,1470,40.5736111,44.7863889
am,zovuni,01,4484,40.5108333,44.4288889
an,barber,00,2424,12.2833333,-69.0666667
an,golden rock,00,823,17.4833333,-62.9833333
an,hato,00,13,12.1833333,-68.2833333
an,kralendijk,00,3081,12.15,-68.2666667
an,lagun,00,289,12.3166667,-69.1666667
an,nieuwpoort,00,1937,12.05,-68.8166667
an,oranjestad,00,1097,17.4666667,-62.9833333
an,rincon,00,1496,12.2333333,-68.3333333
an,sint michiel,00,5138,12.1333333,-68.9833333
an,soto,00,1987,12.2666667,-69.1
an,the bottom,00,488,17.6333333,-63.25
an,westpunt,00,783,12.3666667,-69.1666667
an,willemstad,00,97590,12.1,-68.9166667
an,windward side,00,442,17.6333333,-63.2333333
ao,benguela,01,151235,-12.578333,13.407222
ao,caala,08,21205,-12.8525,15.560556
ao,cabinda,03,66020,-5.55,12.2
ao,caconda,09,10551,-13.733333,15.066667
ao,caluquembe,09,30305,-13.783333,14.683333
ao,camabatela,05,12839,-8.18812,15.37495
ao,camacupa,02,19150,-12.016667,17.483333
ao,catabola,02,18858,-12.15,17.283333
ao,catumbela,01,16980,-12.431389,13.547222
ao,caxito,19,28229,-8.58,13.664167
ao,cazaje,18,4764,-11.067147,20.701483
ao,chissamba,02,7677,-12.166667,17.333333
ao,huambo,08,226177,-12.776111,15.739167
ao,kibala,06,8915,-10.73366,14.98
ao,kuito,02,113624,-12.383333,16.933333
ao,leua,14,5168,-11.65,20.45
ao,lobito,01,207957,-12.319722,13.6
ao,longonjo,08,24350,-12.906667,15.253333
ao,luanda,20,2776125,-8.836804,13.233174
ao,luau,14,18465,-10.707273,22.22466
ao,lubango,09,102541,-14.916667,13.5
ao,lucapa,17,20115,-8.419151,20.744655
ao,luena,14,21115,-11.783333,19.916667
ao,lumeje,14,4972,-11.55,20.783333
ao,malanje,12,87047,-9.544722,16.345278
ao,menongue,04,19141,-14.661639,17.688224
ao,namibe,13,80150,-15.196111,12.152222
ao,ondjiva,07,10169,-17.066667,15.733333
ao,saurimo,18,40498,-9.66078,20.391553
ao,soyo,16,67553,-6.134903,12.368935
ao,sumbe,06,33278,-11.206048,13.843713
ao,uige,15,60008,-7.613282,15.056621
ar,alta gracia,05,40385,-31.652925,-64.428259
ar,azul,01,52333,-36.776976,-59.858539
ar,bahia blanca,01,282950,-38.719595,-62.272432
ar,bell ville,05,35106,-32.625906,-62.68873
ar,campana,01,83175,-34.168742,-58.95914
ar,catamarca,02,213601,-28.469574,-65.785239
ar,chacabuco,01,34587,-34.641667,-60.473889
ar,chivilcoy,01,52307,-34.895661,-60.016667
ar,comodoro rivadavia,07,142597,-45.864135,-67.496558
ar,concepcion del uruguay,08,72904,-32.482493,-58.237217
ar,concordia,08,155686,-31.392959,-58.02089
ar,cordoba,05,1441007,-31.413496,-64.181052
ar,corrientes,06,390481,-27.480596,-58.8341
ar,dolores,01,25190,-36.313215,-57.679185
ar,eldorado,14,62823,-26.404841,-54.624784
ar,formosa,09,248756,-26.177534,-58.178139
ar,general pico,11,55900,-35.656622,-63.756815
ar,general roca,16,76066,-39.02797,-67.573711
ar,goya,06,70340,-29.14,-59.262564
ar,gualeguaychu,08,88218,-33.0,-58.51722
ar,gualeguay,08,33120,-33.141559,-59.309657
ar,jujuy,10,277150,-24.194565,-65.297116
ar,junin,01,76369,-34.583816,-60.943318
ar,la plata,01,684318,-34.921454,-57.954533
ar,la rioja,12,178497,-29.411048,-66.850668
ar,libertador general san martin,10,49273,-23.806443,-64.787574
ar,lincoln,01,24798,-34.866494,-61.530197
ar,lujan,01,74823,-34.570278,-59.105
ar,lujan,13,77625,-33.035471,-68.877823
ar,mar del plata,01,645771,-38.0,-57.557539
ar,mendoza,13,973047,-32.890845,-68.827171
ar,mercedes,01,49067,-34.651455,-59.430676
ar,mercedes,06,30649,-29.181858,-58.078951
ar,mercedes,19,126559,-33.674359,-65.461405
ar,necochea,01,84969,-38.547259,-58.736753
ar,neuquen,15,359037,-38.951606,-68.059102
ar,nueve de julio,01,34717,-35.444374,-60.883131
ar,obera,14,58939,-27.487059,-55.12
ar,olavarria,01,80005,-36.892715,-60.32254
ar,parana,08,299257,-31.731967,-60.523802
ar,pergamino,01,86708,-33.89,-60.573568
ar,posadas,14,313438,-27.367077,-55.896078
ar,presidencia roque saenz pena,03,89584,-26.785221,-60.438761
ar,puerto madryn,04,95547,-42.769201,-65.038513
ar,punta alta,01,53117,-38.875875,-62.073589
ar,rafaela,21,84025,-31.250332,-61.486696
ar,rawson,04,26341,-43.3,-65.10228
ar,reconquista,21,95979,-29.15,-59.65
ar,resistencia,03,406967,-27.46056,-58.983886
ar,rio cuarto,05,174058,-33.130671,-64.35
ar,rio gallegos,20,93234,-51.622613,-69.218127
ar,rio tercero,05,53396,-32.173,-64.114055
ar,rivadavia,13,65641,-33.190509,-68.46081
ar,rosario,21,1218497,-32.946818,-60.639317
ar,salta,17,548288,-24.785896,-65.411664
ar,san carlos de bariloche,16,110044,-41.140293,-71.301369
ar,san francisco,05,71444,-31.427971,-62.082656
ar,san juan,18,469958,-31.5375,-68.536389
ar,san lorenzo,06,47627,-28.133061,-58.767331
ar,san luis,19,184869,-33.295012,-66.335627
ar,san martin,13,107554,-33.081031,-68.468138
ar,san nicolas,01,130705,-33.335784,-60.225233
ar,san pedro,01,67514,-33.679127,-59.666635
ar,san pedro,10,43124,-24.231266,-64.866141
ar,san rafael,13,125033,-34.617717,-68.33
ar,san ramon de la nueva oran,17,84504,-23.13398,-64.324645
ar,santa fe,21,456044,-31.629484,-60.701036
ar,santa rosa,11,89478,-36.616667,-64.283333
ar,santiago del estero,22,407636,-27.795112,-64.261489
ar,san vicente,01,84333,-34.982645,-58.376169
ar,tandil,01,100127,-37.321674,-59.133164
ar,tartagal,17,63600,-22.516365,-63.801314
ar,trelew,04,107883,-43.25,-65.313295
ar,tres arroyos,01,47143,-38.373939,-60.279781
ar,tucuman,24,828402,-26.824144,-65.2226
ar,ushuaia,23,58045,-54.8,-68.3
ar,veinticinco de mayo,01,24668,-35.432303,-60.172707
ar,venado tuerto,21,71794,-33.745564,-61.968845
ar,victoria,08,25139,-32.619888,-60.153907
ar,viedma,16,76553,-40.813452,-63.0
ar,villa carlos paz,05,61095,-31.424138,-64.497778
ar,villa constitucion,21,44278,-33.227778,-60.329699
ar,villa maria,05,92337,-32.407514,-63.240161
ar,zarate,01,88222,-34.098142,-59.028585
at,absam,07,6594,47.3,11.5
at,abtenau,05,5829,47.55,13.35
at,altach,08,6040,47.35,9.65
at,althofen,06,4833,47.15,14.233333
at,altmunster,04,9652,47.9,13.75
at,amstetten,03,22832,48.116667,14.866667
at,anif,05,4154,47.75,13.066667
at,ansfelden,04,14936,48.2,14.283333
at,arnoldstein,02,6923,46.546111,13.71
at,asten,04,6517,48.216667,14.4
at,axams,07,5560,47.233333,11.3
at,bad aussee,06,5210,47.6,13.783333
at,baden,03,24893,48.016667,16.233333
at,bad goisern,04,7869,47.633333,13.616667
at,bad hall,04,4935,48.033333,14.2
at,bad hofgastein,05,7002,47.166667,13.1
at,bad ischl,04,14267,47.716667,13.616667
at,bad sankt leonhard,02,4775,46.962778,14.791667
at,bad voslau,03,11013,47.966667,16.2
at,barnbach,06,4850,46.983333,16.05
at,bergheim,05,5031,47.833333,13.033333
at,berndorf,03,8796,47.95,16.1
at,bischofshofen,05,10145,47.416667,13.216667
at,bludenz,08,13904,47.149722,9.816667
at,braunau,04,16403,48.266667,13.033333
at,bregenz,08,26928,47.5,9.766667
at,bruck an der leitha,03,7339,48.016667,16.766667
at,bruck an der mur,06,13254,47.416667,15.283333
at,deutschlandsberg,06,8049,46.815278,15.222222
at,deutsch-wagram,03,7153,48.3,16.566667
at,dornbirn,08,43013,47.416667,9.733056
at,ebbs,07,5088,47.633333,12.216667
at,ebensee,04,8376,47.8,13.766667
at,ebenthal,02,7809,46.608056,14.364167
at,eberndorf,02,6089,46.591389,14.643611
at,ebreichsdorf,03,9509,47.95,16.4
at,eisenerz,06,5987,47.533333,14.883333
at,eisenstadt,01,11767,47.85,16.516667
at,engerwitzdorf,04,8510,48.35,14.45
at,enns,04,10816,48.2,14.466667
at,feldbach,06,4877,46.953056,15.888333
at,feldkirchen an der donau,04,5286,48.35,14.05
at,feldkirchen,02,14440,46.716667,14.1
at,feldkirch,08,29446,47.233056,9.6
at,ferlach,02,7661,46.526944,14.301944
at,finkenstein,02,8406,46.565556,13.865278
at,fohnsdorf,06,8203,47.2,14.683333
at,frankenburg,04,5162,48.066667,13.483333
at,freistadt,04,7574,48.5,14.5
at,friesach,02,5369,46.955278,14.405833
at,frohnleiten,06,6629,47.266667,15.316667
at,fugen,07,3734,47.35,11.85
at,furstenfeld,06,5962,47.05,16.083333
at,gallneukirchen,04,6282,48.35,14.416667
at,ganserndorf,03,8588,48.35,16.733333
at,garsten,04,6657,48.016667,14.4
at,gleisdorf,06,5245,47.1,15.716667
at,gloggnitz,03,6213,47.666667,15.933333
at,gmunden,04,13287,47.916667,13.8
at,gmund,03,5811,48.766667,14.983333
at,gotzis,08,10342,47.333056,9.633056
at,gratkorn,06,6806,47.133333,15.35
at,graz,06,222326,47.066667,15.45
at,grieskirchen,04,4766,48.233333,13.833333
at,grodig,05,6918,47.733333,13.033333
at,guntramsdorf,03,9071,48.033333,16.3
at,haag,03,5164,48.15,15.5
at,hainburg,03,5622,48.15,16.933333
at,hallein,05,18980,47.683333,13.1
at,hall,06,11197,47.6,14.45
at,hard,08,11766,47.483056,9.683056
at,heidenreichstein,03,4472,48.866667,15.116667
at,hermagor,02,7242,46.627222,13.367222
at,herzogenburg,03,7866,48.266667,15.683333
at,himberg,03,5534,48.083333,16.433333
at,hochst,08,7207,47.466667,9.633056
at,hohenems,08,14072,47.366667,9.683056
at,hollabrunn,03,10966,48.55,16.083333
at,hopfgarten,07,5314,47.45,12.166667
at,horbranz,08,6414,47.55,9.75
at,horn,03,6485,48.65,15.65
at,horsching,04,5312,48.233333,14.183333
at,imst,07,9225,47.233333,10.733333
at,innsbruck,07,112467,47.266667,11.4
at,jenbach,07,6806,47.4,11.783333
at,jennersdorf,01,4319,46.939167,16.146667
at,judenburg,06,9992,47.166667,14.666667
at,kapfenberg,06,21819,47.433333,15.3
at,kindberg,06,5790,47.5,15.45
at,kirchbichl,07,5115,47.516667,12.083333
at,kitzbuhel,07,8818,47.45,12.383333
at,klagenfurt,02,90610,46.624722,14.305278
at,klosterneuburg,03,24843,48.3,16.316667
at,knittelfeld,06,12704,47.216667,14.816667
at,koflach,06,10447,47.066667,15.083333
at,korneuburg,03,11498,48.35,16.333333
at,kottingbrunn,03,7184,47.95,16.216667
at,krems,03,24092,48.416667,15.6
at,kremsmunster,04,6626,48.05,14.133333
at,krieglach,06,5236,47.533333,15.55
at,kuchl,05,6668,47.616667,13.15
at,kufstein,07,16116,47.583333,12.166667
at,laakirchen,04,9569,47.966667,13.816667
at,laa,03,6084,48.716667,16.383333
at,landeck,07,7351,47.133333,10.566667
at,langenlois,03,7081,48.466667,15.666667
at,langenzersdorf,03,7733,48.3,16.35
at,lauterach,08,9212,47.483056,9.733056
at,leibnitz,06,7029,46.781667,15.541667
at,lenzing,04,5044,47.966667,13.616667
at,leoben,06,24809,47.383333,15.1
at,leonding,04,22736,48.266667,14.25
at,lienz,07,12270,46.831111,12.759722
at,liezen,06,6903,47.566667,14.233333
at,linz,04,181163,48.3,14.3
at,lochau,08,5209,47.533333,9.75
at,lustenau,08,20218,47.433056,9.65
at,marchtrenk,04,11666,48.183333,14.116667
at,maria enzersdorf,03,8085,48.1,16.283333
at,matrei,07,5076,47.0,12.533333
at,mattersburg,01,6448,47.733333,16.4
at,melk,03,5272,48.216667,15.316667
at,micheldorf,04,5902,47.85,14.133333
at,mistelbach,03,10820,48.57,16.576667
at,mittelberg,08,4627,47.2,9.65
at,mittersill,05,5680,47.266667,12.483333
at,modling,03,20710,48.083333,16.283333
at,moosburg,02,4602,46.6575,14.174722
at,murzzuschlag,06,9410,47.6,15.683333
at,nenzing,08,5856,47.183056,9.7
at,neudorfl,01,4183,47.783333,16.283333
at,neulengbach,03,7521,48.2,15.9
at,neunkirchen,03,11313,47.716667,16.083333
at,neusiedl am see,01,5949,47.933333,16.833333
at,nuziders,08,4628,47.166667,9.8
at,oberndorf,04,5738,48.25,13.333333
at,oberwart,01,6879,47.283333,16.2
at,pasching,04,6143,48.25,14.2
at,paternion,02,6301,46.714167,13.636111
at,perchtoldsdorf,03,14041,48.116667,16.266667
at,perg,04,7644,48.25,14.633333
at,pinkafeld,01,5257,47.366667,16.116667
at,pottendorf,03,6105,47.9,16.383333
at,poysdorf,03,5653,48.666667,16.633333
at,pressbaum,03,6083,48.183333,16.083333
at,purgstall,03,5247,48.05,15.133333
at,purkersdorf,03,8327,48.2,16.166667
at,radstadt,05,4926,47.383333,13.45
at,rankweil,08,11455,47.283056,9.65
at,reichenau,03,2673,47.7,15.833333
at,retz,03,4139,48.75,15.95
at,reutte,07,5851,47.483333,10.716667
at,ried,04,11511,48.216667,13.5
at,rottenmann,06,5561,47.516667,14.35
at,rum,07,8498,47.283333,11.45
at,rust,01,1726,47.8,16.666667
at,saalfelden,05,16119,47.416667,12.85
at,salzburg,05,145310,47.8,13.033333
at,sankt andra,02,10825,46.766111,14.823611
at,sankt florian,04,5760,48.166667,13.133333
at,sankt georgen,04,4180,47.933333,13.483333
at,sankt jakob,02,4481,46.547778,14.057222
at,sankt johann im pongau,05,10887,47.35,13.2
at,sankt polten,03,49000,48.2,15.633333
at,sankt valentin,03,9063,48.166667,14.516667
at,sankt veit,02,13116,46.768056,14.360278
at,scharding,04,4919,48.45,13.433333
at,scharnstein,04,4631,47.9,13.95
at,schladming,06,4659,47.383333,13.683333
at,schrems,03,5811,48.783333,15.066667
at,schruns,08,3506,47.066667,9.916667
at,schwaz,07,12507,47.333333,11.7
at,schwechat,03,15711,48.133333,16.466667
at,seeboden,02,6221,46.821944,13.495
at,seekirchen,05,9865,47.9,13.133333
at,seewalchen,04,4959,47.95,13.583333
at,sieghartskirchen,03,7062,48.25,16.0
at,sierning,04,8722,48.033333,14.3
at,spittal,02,16363,46.8,13.5
at,steyregg,04,4856,48.283333,14.366667
at,steyr,04,39567,48.05,14.416667
at,stockerau,03,14831,48.383333,16.216667
at,strasshof,03,7637,48.316667,16.666667
at,tamsweg,05,6126,47.133333,13.8
at,telfs,07,14028,47.3,11.066667
at,ternitz,03,15153,47.716667,16.033333
at,thalgau,05,5501,47.833333,13.25
at,timelkam,04,5855,48.0,13.6
at,traiskirchen,03,16212,48.016667,16.283333
at,traismauer,03,5815,48.35,15.733333
at,traun,04,23959,48.216667,14.233333
at,trofaiach,06,8313,47.416667,15.0
at,tulln,03,14201,48.333333,16.05
at,velden am worthersee,02,8817,46.616111,14.045833
at,vienna,09,1569315,48.2,16.366667
at,villach,02,58882,46.610278,13.855833
at,vocklabruck,04,11887,48.016667,13.65
at,vocklamarkt,04,4869,48.0,13.483333
at,voitsberg,06,9980,47.033333,15.15
at,volkermarkt,02,11543,46.662222,14.634444
at,vols,07,6573,47.25,11.333333
at,vomp,07,4628,47.333333,11.683333
at,vorchdorf,04,7456,48.0,13.916667
at,waidhofen,03,11774,47.966667,14.766667
at,wattens,07,7517,47.283333,11.6
at,weiz,06,9128,47.216667,15.616667
at,wels,04,57947,48.166667,14.033333
at,wernberg,02,5070,46.616667,13.933333
at,wiener neudorf,03,8530,48.066667,16.316667
at,wiener neustadt,03,38481,47.8,16.25
at,wilhelmsburg,03,6718,48.1,15.6
at,wolfsberg,02,25610,46.840556,14.844167
at,wolfurt,08,8110,47.466667,9.75
at,wolkersdorf,03,6416,48.383333,16.516667
at,worgl,07,11265,47.483333,12.066667
at,ybbs,03,5676,48.166667,15.083333
at,zell am see,05,10046,47.316667,12.783333
at,zeltweg,06,7726,47.183333,14.75
at,zirl,07,6567,47.283333,11.233333
at,zistersdorf,03,5661,48.533333,16.75
at,zwettl,03,11718,48.616667,15.166667
au,adelaide,05,1074168,-34.928661,138.598633
au,albany,08,23913,-35.0,117.865952
au,albury,02,104261,-36.07494,146.923935
au,alice springs,03,26188,-23.697479,133.883621
au,alyangula,03,1289,-13.85413,136.421295
au,ararat,07,6111,-37.285419,142.927277
au,armidale,02,22673,-30.50828,151.671234
au,atherton,04,6959,-17.268641,145.47522
au,australind,08,6621,-33.279202,115.715042
au,ayr,04,9079,-19.573931,147.406662
au,bairnsdale,07,11006,-37.822891,147.610413
au,ballarat,07,85110,-37.56266,143.862579
au,ballina,02,14248,-28.86414,153.565414
au,batemans bay,02,10557,-35.706581,150.175415
au,benalla,07,9020,-36.551128,145.984253
au,bendigo,07,81658,-36.758179,144.280243
au,biloela,04,6309,-24.416667,150.5
au,blackwater,04,7250,-23.583509,148.87912
au,bongaree,04,13649,-27.08367,153.159424
au,bowen,04,10983,-20.01367,148.247543
au,bowral,02,9605,-34.477501,150.420395
au,brisbane,04,1843459,-27.471,153.024292
au,broken hill,02,17395,-31.961729,141.46
au,broome,08,13218,-17.955379,122.23922
au,buderim,04,15228,-26.684429,153.057053
au,bunbury,08,26370,-33.32711,115.641373
au,bundaberg,04,52478,-24.866211,152.3479
au,burnie,06,19976,-41.05584,145.903748
au,burpengary,04,8280,-27.161131,152.959442
au,busselton,08,12374,-33.652489,115.345497
au,byron bay,02,6764,-28.642,153.611938
au,caboolture,04,21478,-27.08465,152.951096
au,cairns,04,154318,-16.92304,145.766251
au,caloundra,04,38714,-26.797091,153.137711
au,canberra,01,324025,-35.27603,149.13435
au,carnarvon,08,7392,-24.88073,113.6594
au,casino,02,9539,-28.858191,153.047485
au,castlemaine,07,6604,-37.067089,144.216843
au,cessnock,02,16394,-32.832111,151.356232
au,charters towers,04,9574,-20.07671,146.263535
au,clifton springs,07,7413,-38.1567,144.5551
au,coffs harbour,02,62978,-30.296261,153.11351
au,colac,07,9089,-38.339,143.584885
au,collie,08,6337,-33.362061,116.156174
au,coolum beach,04,8555,-26.533331,153.091232
au,cooma,02,6520,-36.234692,149.125977
au,cootamundra,02,4934,-34.640949,148.028381
au,corowa,02,5179,-36.0,146.385803
au,cowra,02,6799,-33.835541,148.696625
au,craigieburn,07,19728,-37.6,144.95
au,cranbourne,07,39420,-38.113419,145.283264
au,crib point,07,6908,-38.35,145.2
au,dalby,04,9848,-27.18169,151.262054
au,darwin,03,93081,-12.45722,130.836639
au,deception bay,04,16090,-27.193541,153.026306
au,deniliquin,02,8024,-35.527409,144.959579
au,devonport,06,19318,-41.176949,146.351517
au,dubbo,02,29362,-32.24295,148.604843
au,emerald,04,9399,-23.522961,148.157837
au,esperance,08,7889,-33.86013,121.882591
au,flinders,05,15000,-32.8,134.211594
au,forbes,02,4838,-33.384361,148.0
au,galiwinku,03,1347,-12.02811,135.564865
au,gatton,04,6513,-27.558729,152.276184
au,gawler,05,16362,-34.602509,138.749023
au,geelong,07,150438,-38.153461,144.358093
au,geraldton,08,27259,-28.778971,114.614594
au,gladstone,04,30493,-23.84761,151.256348
au,gold coast,04,501175,-28.0,153.430878
au,goulburn,02,20941,-34.751549,149.720856
au,grafton,02,16399,-29.690121,152.933365
au,griffith,02,15456,-34.288528,146.050934
au,gunnedah,02,7148,-30.98065,150.258377
au,gympie,04,11029,-26.189159,152.658188
au,hamilton,07,8869,-37.74334,142.028915
au,hastings,07,6583,-38.3,145.183333
au,healesville,07,7098,-37.65395,145.517181
au,hervey bay,04,47561,-25.285,152.873
au,hobart,06,204863,-42.883209,147.331665
au,horsham,07,12830,-36.711311,142.2
au,howard springs,03,3359,-12.49576,131.044464
au,ingham,04,6127,-18.645519,146.162476
au,innisfail,04,10144,-17.522091,146.031021
au,inverell,02,8561,-29.774031,151.111664
au,jabiru,03,1892,-12.67558,132.831406
au,karratha,08,11694,-20.73649,116.84638
au,katherine,03,10142,-14.46517,132.263474
au,kawana waters,04,19881,-26.706,153.131577
au,kempsey,02,9522,-31.078979,152.830933
au,kiama,02,10380,-34.668282,150.852188
au,kingaroy,04,8573,-26.54,151.837296
au,kununurra,08,5679,-15.77813,128.744141
au,kurri kurri,02,10991,-32.819328,151.47908
au,kwinana,08,20087,-32.230129,115.781281
au,kyabram,07,6396,-36.313351,145.050354
au,lakes entrance,07,5849,-37.878941,148.0
au,lara,07,8179,-38.02388,144.406174
au,launceston,06,72462,-41.438759,147.134674
au,leeton,02,7299,-34.551048,146.404831
au,lemon tree passage,02,5865,-32.731579,152.037186
au,leopold,07,6120,-38.19,144.468246
au,lismore,02,31433,-28.81328,153.275803
au,lithgow,02,11129,-33.482471,150.136307
au,mackay,04,75924,-21.15345,149.165543
au,mandurah,08,73369,-32.526901,115.721703
au,maningrida,03,1391,-12.05111,134.22258
au,mareeba,04,8403,-17.0,145.423233
au,maryborough,04,20680,-25.54073,152.704926
au,maryborough,07,7046,-37.04562,143.739227
au,medowie,02,5841,-32.7415,151.8676
au,melbourne,07,3730212,-37.813938,144.963425
au,melton,07,32369,-37.683392,144.585434
au,mildura,07,47867,-34.185509,142.162506
au,milingimbi,03,986,-12.10188,134.919
au,mittagong,02,6717,-34.45,150.445724
au,moranbah,04,7955,-22.0,148.034836
au,morayfield,04,10261,-27.108761,152.949066
au,moree,02,8205,-29.46278,149.841568
au,morwell,07,11585,-38.23476,146.394989
au,moss vale,02,6739,-34.553741,150.371155
au,mount barker,05,8357,-35.066667,138.866667
au,mount gambier,05,23210,-37.831799,140.77919
au,mount isa,04,22564,-20.725229,139.497269
au,mudgee,02,9042,-32.433333,149.583333
au,murray bridge,05,11356,-35.119862,139.273453
au,murwillumbah,02,6868,-28.32732,153.393387
au,muswellbrook,02,11630,-32.261181,150.89
au,nambour,04,14919,-26.626129,152.959412
au,nambucca heads,02,6899,-30.643181,153.0
au,narrabri,02,7082,-30.32612,149.783707
au,nelson bay,02,7725,-32.720428,152.143982
au,nerang,04,17684,-27.98941,153.336334
au,newcastle,02,497961,-32.927792,151.784485
au,new norfolk,06,5526,-42.78075,147.059387
au,nguiu,03,1250,-11.75911,130.638153
au,ngukurr,03,947,-14.73081,134.731018
au,nhulunbuy,03,3202,-12.18652,136.782013
au,northam,08,5858,-31.649321,116.674232
au,orange,02,30402,-33.283089,149.1
au,pakenham,07,10602,-38.070179,145.474106
au,palmerston,03,31075,-12.45722,130.836639
au,parkes,02,11137,-33.1372,148.175903
au,perth,08,1446715,-31.95224,115.861397
au,port augusta,05,12133,-32.495972,137.772812
au,port hedland,08,14289,-20.312149,118.610588
au,port keats,03,1351,-14.24029,129.52092
au,portland,07,8842,-38.352612,141.605743
au,port lincoln,05,11247,-34.72625,135.87442
au,port macquarie,02,48553,-31.43084,152.908936
au,port pirie,05,12328,-33.191761,138.017456
au,queanbeyan,02,32249,-35.354931,149.232
au,raymond terrace,02,13606,-32.75,151.75
au,rockhampton,04,65851,-23.38032,150.505951
au,roebourne,08,19264,-20.772289,117.146477
au,roma,04,5497,-26.56741,148.787506
au,sale,07,12917,-38.11095,147.068024
au,sawtell,02,14608,-30.36459,153.10141
au,singleton,02,13813,-32.567421,151.166031
au,somerville,07,7015,-38.216667,145.166667
au,stawell,07,6991,-37.05632,142.780884
au,sunbury,07,29926,-37.577419,144.726074
au,swan hill,07,9276,-35.3386,143.559525
au,sydney,02,4394585,-33.861481,151.205475
au,tamworth,02,38552,-31.090481,150.929047
au,taree,02,44183,-31.911,152.453873
au,toowoomba,04,92802,-27.56056,151.953857
au,torquay,04,6670,-25.283333,152.866667
au,townsville,04,138959,-19.26639,146.805695
au,traralgon,07,18226,-38.195278,146.541504
au,tumut,02,6526,-35.3,148.225052
au,ulladulla,02,9250,-35.359058,150.472473
au,ulverstone,06,9605,-41.160259,146.182419
au,victor harbor,05,7760,-35.550419,138.621536
au,victoria point,04,11930,-27.58329,153.311722
au,wagga wagga,02,55382,-35.125771,147.353745
au,wangaratta,07,14023,-36.358459,146.320557
au,warragul,07,9128,-38.159119,145.931183
au,warrnambool,07,29928,-38.38176,142.488
au,warwick,04,12347,-28.219,152.034378
au,wellington,02,5428,-32.555882,148.945084
au,whyalla,05,19646,-33.032681,137.564835
au,wodonga,07,31518,-36.121792,146.888092
au,wollongong,02,260918,-34.424,150.893448
au,wonthaggi,07,5985,-38.605862,145.593552
au,yeppoon,04,10769,-23.126829,150.744064
au,young,02,7501,-34.3135,148.301071
au,yulara,03,3903,-25.245291,130.980545
aw,oranjestad,00,29998,12.5166667,-70.0333333
az,agdam,03,39451,40.0,46.927356
az,agdas,04,23528,40.65,47.476111
az,agstafa,05,12542,41.118889,45.453889
az,agsu,06,17209,40.569167,48.396476
az,alunitdag,16,857,40.521667,46.080556
az,aran,67,6724,40.625278,46.975556
az,artyom,09,13435,40.472255,50.333041
az,astara,08,15190,38.455977,48.87498
az,badamdar,09,11398,40.339444,49.803889
az,baku,09,1116513,40.395278,49.882222
az,basqal,25,1234,40.7552,48.391044
az,buzovna,09,24795,40.517888,50.1139
az,ceyranbatan,01,5684,40.540833,49.659722
az,corat,54,8624,40.5725,49.706389
az,culfa,35,10820,38.9558,45.6308
az,gilazi,53,3277,40.903896,49.335522
az,gilazi,63,3277,40.870977,49.342333
az,goranboy,21,7334,40.610278,46.789722
az,goycay,22,35348,40.653056,47.740556
az,gurgan,09,712,40.397462,50.336733
az,guzdak,01,2462,40.374444,49.681944
az,hadrut,65,2523,39.52,47.0318
az,haftoni,29,2003,38.763253,48.762231
az,hasanabad,36,4308,39.336672,49.214143
az,horadiz,18,2714,39.448771,47.335313
az,hovsan,09,36293,40.374444,50.085278
az,imisli,24,31381,39.871307,48.064094
az,istisu,26,929,39.947532,45.962121
az,kesla,09,17913,40.397778,49.898611
az,kijaba,08,4567,38.532778,48.816667
az,kirovskiy,09,34488,40.433333,49.85
az,korgoz,09,2036,40.303056,49.62
az,lerik,31,7094,38.772633,48.412788
az,lokbatan,09,30694,40.323718,49.728038
az,masalli,32,9603,39.027781,48.670276
az,mastaga,09,40092,40.532778,50.0
az,mincivan,69,6353,39.029348,46.718471
az,mugan,23,4410,40.095182,48.821136
az,naftalan,34,7045,40.506667,46.825
az,nardaran,09,7700,40.556111,50.0
az,neftcala,36,18661,39.37417,49.247224
az,ordubad,35,9781,38.905954,46.023411
az,pirsagi,09,5102,40.564032,49.8913
az,pushkino,13,18182,39.458333,48.545
az,puta,09,1018,40.296667,49.660278
az,qabaqcol,10,1293,41.72,46.264722
az,qala,09,2709,40.44182,50.168121
az,qaracala,49,4211,39.813178,48.952303
az,qaracuxur,09,72989,40.396667,49.973611
az,qarayeri,52,5565,40.78862,46.306589
az,qax,39,11993,41.4225,46.924167
az,qazanbulaq,21,980,40.618611,46.645278
az,qazax,40,18904,41.093333,45.366111
az,qobu,01,7377,40.404722,49.713056
az,qobustan,09,13398,40.08238,49.412048
az,qovlar,58,12819,40.942137,45.732171
az,quba,42,22405,41.362587,48.515186
az,qusar,44,16022,41.427284,48.42893
az,quscu,16,408,40.555556,46.091944
az,ramana,09,8855,40.442222,49.980556
az,sabirabad,46,28076,40.0,48.475154
az,sabuncu,09,20996,40.4425,49.948056
az,sahbuz,35,2674,39.407222,45.573889
az,salyan,49,36555,39.593615,48.980552
az,samur,44,1760,41.632544,48.430248
az,saray,01,10173,40.532222,49.716389
az,sollar,60,205,41.639727,48.664408
az,sonqar,09,730,40.3221,49.601085
az,suraabad,63,1945,40.819244,49.468745
az,susa,56,18663,39.758934,46.749187
az,tovuz,58,12626,41.0,45.628889
az,turkan,09,9699,40.363889,50.215
az,turyancay,04,307,40.7088,47.54326
az,ucar,59,15741,40.518333,47.654167
az,vurgun,05,2635,41.094229,45.471616
az,xacmaz,60,37175,41.463489,48.80605
az,xanlar,62,17816,40.586944,46.315833
az,xocali,61,5810,39.9,46.866667
az,xocali,64,5810,39.912973,46.790284
az,xocasan,09,5089,40.413484,49.772088
az,xudat,60,13625,41.630965,48.681
az,yevlax,68,53715,40.612732,47.142329
az,zabrat,09,21396,40.476104,49.941582
az,zaqatala,70,18277,41.633611,46.643333
az,zig,09,6001,40.343889,49.969167
ba,banja luka,02,221100,44.7758333,17.1855556
ba,banovici,01,7211,44.4041667,18.4475
ba,barice,01,3697,44.5405556,18.4811111
ba,batkovici,02,4923,44.8536111,19.1963889
ba,bihac,01,75641,44.8169444,15.8708333
ba,bijela,01,3484,43.6086111,17.9519444
ba,bijeljina,02,37691,44.7569444,19.2161111
ba,bila,01,4397,43.7825,16.9252778
ba,bileca,02,13256,42.8719444,18.4297222
ba,blagaj,01,4715,43.2575,17.8886111
ba,blatnica,02,5675,44.3530556,17.5894444
ba,bosanska dubica,02,9959,45.1766667,16.8094444
ba,bosanska gradiska,02,13345,45.1411111,17.25
ba,bosanska kostajnica,02,4739,45.2197222,16.5358333
ba,bosanska krupa,01,15193,44.8825,16.1513889
ba,bosanski brod,02,9249,45.1375,17.9897222
ba,bosanski novi,02,8920,45.0458333,16.3802778
ba,bosanski samac,02,3599,45.0591667,18.4669444
ba,bosansko grahovo,01,5642,44.1794444,16.3638889
ba,bratunac,02,4717,44.1875,19.3394444
ba,brcko,BD,38478,44.8727778,18.8083333
ba,breza,01,3732,44.0161111,18.2588889
ba,bronzani majdan,02,3945,44.7869444,16.9311111
ba,bugojno,01,41378,44.0572222,17.4508333
ba,busovaca,01,4775,44.0975,17.8788889
ba,buzim,01,7229,45.0547222,16.0319444
ba,cajnice,02,3908,43.5575,19.0711111
ba,capljina,01,7923,43.1138889,17.7036111
ba,careva cuprija,01,3954,44.2658333,18.4291667
ba,cazin,01,21741,44.9669444,15.9430556
ba,cecava,02,3847,44.6866667,17.7705556
ba,celinac,02,6670,44.7227778,17.3277778
ba,cim,01,3966,43.3527778,17.7772222
ba,citluk,01,5718,43.2286111,17.7
ba,coralici,01,5223,44.9830556,15.9041667
ba,crnici,01,5789,43.1288889,17.8666667
ba,derventa,02,9772,44.9772222,17.9102778
ba,divicani,01,7250,44.3666667,17.3261111
ba,doboj,02,27234,44.7347222,18.0877778
ba,dobrinje,01,3987,44.0497222,18.1194444
ba,dobrljin,02,3581,45.1469444,16.5033333
ba,donja dubica,01,3489,45.075,18.4113889
ba,donja mahala,01,5565,45.0469444,18.6663889
ba,donja medjidja,01,3782,44.8025,18.4033333
ba,donja orahovica,01,5612,44.6530556,18.3702778
ba,donje dubrave,01,3811,44.4811111,18.6961111
ba,donje vukovije,01,3535,44.4636111,18.7538889
ba,donji vakuf,01,7955,44.1436111,17.4
ba,dreznica,01,3908,43.5288889,17.2819444
ba,drinovci,01,3791,43.355,17.3538889
ba,dubravica,01,3868,44.4419444,18.1180556
ba,foca,02,14614,43.505,18.7786111
ba,fojnica,01,8244,43.9625,17.8983333
ba,gacko,02,3417,43.1672222,18.5352778
ba,glamoc,01,4015,44.0458333,16.8486111
ba,gnojnica,01,3985,44.6205556,18.4466667
ba,gorazde,01,17649,43.6669444,18.9763889
ba,gornja koprivna,01,4600,45.0119444,15.9572222
ba,gornja tuzla,01,4864,44.5561111,18.7613889
ba,gornje dubrave,01,4821,44.4713889,18.7297222
ba,gornje zivinice,01,4661,44.4286111,18.6169444
ba,gornji vakuf,01,7014,43.9380556,17.5883333
ba,gostovici,01,5802,44.415,18.1583333
ba,gracanica,01,15758,44.7033333,18.3097222
ba,gradacac,01,15659,44.8808333,18.4269444
ba,gromiljak,01,6457,43.9666667,18.0530556
ba,grude,01,4627,43.3641667,17.4205556
ba,hadzici,01,7173,43.8222222,18.2066667
ba,hotonj,01,4013,43.8947222,18.3727778
ba,ilici,01,3688,43.3472222,17.7680556
ba,ilijas,01,5854,43.9508333,18.2708333
ba,izacic,01,4089,44.875,15.7819444
ba,jablanica,01,6209,43.6602778,17.7616667
ba,jajce,01,9762,44.3422222,17.2655556
ba,janja,02,5543,44.6652778,19.2477778
ba,jelah,01,5291,44.6541667,17.9580556
ba,jezerski,01,4361,44.9808333,16.0841667
ba,kacuni,01,5042,44.065,17.9386111
ba,kakanj,01,12405,44.1272222,18.1180556
ba,karadaglije,01,3700,44.5716667,18.0183333
ba,kiseljak,01,3447,44.4888889,18.5688889
ba,kladanj,01,6783,44.2263889,18.6913889
ba,kljuc,01,7244,44.535,16.7722222
ba,knezica,02,4792,45.1027778,16.6775
ba,kobilja glava,01,3666,43.8819444,18.3891667
ba,kocerin,01,3516,43.3897222,17.485
ba,konjic,01,15950,43.6519444,17.9613889
ba,koran,02,3394,43.8102778,18.5688889
ba,laktasi,02,6464,44.9080556,17.3
ba,lamovita,02,4582,44.9255556,16.9072222
ba,lijesnica,01,3559,44.4941667,18.0741667
ba,listica,01,9370,43.3833333,17.5927778
ba,livno,01,11748,43.8269444,17.0
ba,ljubinje,02,4235,42.9508333,18.0886111
ba,ljubuski,01,9987,43.1969444,17.545
ba,lokvine,01,3928,44.2047222,17.8563889
ba,lopare,02,3614,44.6377778,18.8427778
ba,lukavac,01,12607,44.5419444,18.5258333
ba,lukavica,01,4084,44.7627778,18.1688889
ba,maglajani,02,4221,44.9486111,17.3494444
ba,maglaj,01,7398,44.5491667,18.0966667
ba,mala kladusa,01,6033,45.1341667,15.8586111
ba,malesici,01,3764,44.7380556,18.2738889
ba,maricka,02,3707,44.8588889,16.8522222
ba,maslovare,02,4899,44.5655556,17.5336111
ba,milici,02,8210,44.1316667,19.0316667
ba,mionica,01,8701,44.8672222,18.4630556
ba,modrica,02,5135,44.9544444,18.3036111
ba,mostar,01,104517,43.3433333,17.8080556
ba,mostre,01,4009,44.025,18.1413889
ba,mramor,01,3918,44.5916667,18.5644444
ba,mrkonjic grad,02,14737,44.4158333,17.0861111
ba,nevesinje,02,7312,43.2586111,18.1133333
ba,novi seher,01,4416,44.5102778,18.0258333
ba,novi travnik,01,10006,44.1711111,17.6575
ba,obudovac,02,2171,44.965,18.6122222
ba,odzak,01,11621,45.0111111,18.3266667
ba,olovo,01,3305,44.13,18.5827778
ba,omarska,02,6466,44.89,16.9
ba,orasac,01,3856,44.6288889,16.0711111
ba,orasje,01,3613,45.0355556,18.6933333
ba,orguz,01,4371,43.7738889,16.8638889
ba,ostra luka,02,3923,45.0,18.5883333
ba,ostrozac,01,5456,44.9086111,15.9402778
ba,otoka,01,6595,44.96,16.1791667
ba,pajic polje,01,4026,43.9758333,17.5275
ba,pale,02,7458,43.8161111,18.5694444
ba,pazaric,01,4787,43.7886111,18.1608333
ba,pecigrad,01,6514,45.0544444,15.8969444
ba,peci,01,3650,44.6272222,16.7861111
ba,petkovci,02,2211,44.4530556,19.0761111
ba,piskavica,02,3797,44.8341667,16.9888889
ba,pjanici,01,3537,44.9836111,15.8227778
ba,podbrdo,02,4028,44.4408333,17.0138889
ba,podhum,01,5801,43.7230556,17.0
ba,podzvizd,01,6665,45.1741667,15.8736111
ba,polje,01,3799,43.8805556,18.0744444
ba,posusje,01,5114,43.4722222,17.3266667
ba,potoci,01,8311,43.4086111,17.8786111
ba,pribinic,02,3558,44.6105556,17.6905556
ba,priboj,02,4351,44.6027778,18.9313889
ba,prijedor,02,36346,44.9813889,16.7130556
ba,prnjavor,02,7098,44.8702778,17.6627778
ba,prozor,01,10349,43.8222222,17.6091667
ba,puracic,01,3461,44.5469444,18.4766667
ba,radisici,01,4071,43.2219444,17.5430556
ba,rodoc,01,5159,43.3088889,17.8069444
ba,rogatica,02,4946,43.8,19.0
ba,rumboci,01,3854,43.8322222,17.5011111
ba,sanica,01,5666,44.6141667,16.6411111
ba,sanski most,01,13550,44.7652778,16.6655556
ba,sarajevo,01,696726,43.85,18.3833333
ba,sekovici,02,6315,44.2986111,18.8527778
ba,serici,01,3663,44.4652778,18.5580556
ba,sipovo,02,10737,44.2813889,17.0838889
ba,skender vakuf,02,6866,44.4908333,17.3775
ba,skokovi,01,3553,45.0313889,15.9144444
ba,sladna,01,4304,44.7294444,18.4241667
ba,sokolac,02,8842,43.9397222,18.8016667
ba,solina,01,4780,44.5602778,18.6947222
ba,srbac,02,7380,45.0977778,17.525
ba,srebrenica,02,2861,44.1063889,19.2969444
ba,srebrenik,01,6723,44.7077778,18.4880556
ba,stanari,02,3590,44.7472222,17.8294444
ba,stijena,01,10844,44.9352778,16.0172222
ba,stolac,01,7733,43.0844444,17.9575
ba,stupari,01,4424,44.3147222,18.6841667
ba,sturlic,01,5013,45.0638889,15.7780556
ba,sumatac,01,4987,45.0988889,15.8575
ba,svodna,02,4387,45.0372222,16.5383333
ba,svojat,01,3515,44.3947222,18.7391667
ba,tesanjka,01,5666,44.6730556,18.0127778
ba,tesanj,01,7549,44.6116667,17.9872222
ba,teslic,02,6404,44.6063889,17.8597222
ba,todorovo,01,9560,45.0883333,15.9308333
ba,tojsici,01,6587,44.4813889,18.7869444
ba,tolisa,01,4282,45.0430556,18.6427778
ba,tomislavgrad,01,7737,43.7180556,17.2266667
ba,travnik,01,31127,44.2266667,17.6705556
ba,trebinje,02,33177,42.7119444,18.3441667
ba,trn,02,7553,44.8597222,17.2363889
ba,trzacka rastela,01,6617,44.9733333,15.7902778
ba,turbe,01,4766,44.2436111,17.5713889
ba,tuzla,01,142484,44.5427778,18.6694444
ba,ugljevik,02,3452,44.6636111,19.0202778
ba,ustikolina,01,4446,43.5836111,18.79
ba,vares,01,7193,44.1644444,18.3283333
ba,varoska rijeka,01,6573,45.0847222,16.0141667
ba,velagici,01,4972,44.5572222,16.7316667
ba,velika kladusa,01,19330,45.1894444,15.8116667
ba,velika obarska,02,5142,44.8052778,19.1641667
ba,vidosi,01,3905,43.7713889,17.0283333
ba,visegrad,02,6086,43.7847222,19.3
ba,visoko,01,17890,43.9888889,18.1780556
ba,vitez,01,8140,44.1544444,17.7902778
ba,vitina,01,4384,43.2375,17.4838889
ba,vlasenica,02,4508,44.1819444,18.9405556
ba,vogosca,01,8179,43.9019444,18.3480556
ba,voljevac,01,3764,43.8786111,17.6591667
ba,vozuca,01,3209,44.3613889,18.3577778
ba,vrnograc,01,6859,45.1636111,15.9536111
ba,zabrisce,01,4261,43.7925,16.9422222
ba,zavidovici,01,14380,44.4458333,18.1497222
ba,zboriste,01,4922,45.1458333,16.0177778
ba,zeljezno polje,01,5783,44.4083333,17.9319444
ba,zenica,01,164422,44.2013889,17.9063889
ba,zepce,01,8502,44.4266667,18.0377778
ba,zivinice,01,13640,44.4494444,18.6497222
ba,zivinice,02,3718,44.5472222,17.375
ba,zvornik,02,8024,44.3869444,19.1013889
bb,bathsheba,06,1765,13.2166667,-59.5166667
bb,blackmans,06,623,13.1833333,-59.5333333
bb,bridgetown,08,98511,13.1,-59.6166667
bb,crab hill,07,727,13.3166667,-59.6333333
bb,greenland,02,623,13.25,-59.5666667
bb,hillaby,02,519,13.2166667,-59.5833333
bb,holetown,04,1350,13.1833333,-59.65
bb,oistins,01,2285,13.0666667,-59.5333333
bb,speightstown,09,3634,13.25,-59.65
bd,abhaynagar,82,42658,23.0166667,89.4666667
bd,badarganj,83,32604,25.6666667,89.05
bd,bajitpur,81,34564,24.2166667,90.95
bd,bandarban,80,32526,22.2,92.2166667
bd,baniachang,86,37812,24.5166667,91.3666667
bd,barisal,84,280437,22.7,90.3666667
bd,bera,81,39608,24.0833333,89.6166667
bd,bhairab bazar,81,105470,24.0666667,90.9666667
bd,bhandaria,84,30222,22.4833333,90.0666667
bd,bheramara,81,38164,24.0333333,88.9666667
bd,bhola,80,99090,22.6833333,90.65
bd,chandpur,80,120183,23.15,90.7166667
bd,char bhadrasan,81,34427,23.3166667,90.2166667
bd,chhagalnaiya,80,39339,23.03,91.5069444
bd,chhatak,86,39223,25.0333333,91.6666667
bd,chilmari,81,49742,25.55,89.7166667
bd,dhaka,81,6493177,23.7230556,90.4086111
bd,dhamrai,81,38003,23.9122222,90.2683333
bd,dinajpur,83,206251,25.6333333,88.6333333
bd,dohar,81,45549,23.5883333,90.1469444
bd,faridpur,81,112200,23.6,89.8333333
bd,fatikchhari,80,39974,22.725,91.7675
bd,feni,85,84038,23.0186111,91.41
bd,gafargaon,81,34181,24.4333333,90.5666667
bd,gaurnadi,81,40524,22.9666667,90.2333333
bd,gazipur,81,132249,23.8,90.65
bd,habiganj,86,88770,24.3833333,91.4166667
bd,hajiganj,80,44349,23.2511111,90.8591667
bd,ishurdi,81,82005,24.1333333,89.0833333
bd,jaipur hat,83,73076,25.1,89.0166667
bd,jamalpur,81,167914,24.9166667,89.9333333
bd,jhikargachha,82,41962,23.1166667,89.1166667
bd,kalia,81,40497,23.05,89.6333333
bd,kaliganj,82,45636,23.4166667,89.1333333
bd,keshabpur,82,30930,22.9166667,89.2166667
bd,khagrachari,80,50364,23.1,91.9666667
bd,khulna,82,1342429,22.8,89.55
bd,kishorganj,81,90700,24.4333333,90.7666667
bd,laksham,85,82299,23.2472222,91.1425
bd,lakshmipur,85,61710,22.95,90.8333333
bd,lalmanir hat,83,65135,25.9,89.45
bd,lalmohan,80,42225,22.3166667,90.7166667
bd,madaripur,81,84799,23.1752778,90.2072222
bd,manikchhari,80,24836,22.8386111,91.8455556
bd,manikganj,81,85800,23.8552778,90.0125
bd,mathbaria,84,29764,22.3,89.95
bd,maulvi bazar,86,57448,24.4833333,91.7833333
bd,mehendiganj,80,39429,22.8166667,90.5333333
bd,mirzapur,81,41142,24.1,90.1
bd,morrelganj,84,31651,22.4666667,89.85
bd,muktagachha,81,24687,24.7666667,90.2333333
bd,nabinagar,80,31675,23.8916667,90.9733333
bd,nageshwari,83,49431,25.9666667,89.7166667
bd,nalchiti,84,38708,22.6333333,90.2833333
bd,naral,81,55118,23.1666667,89.5
bd,narayanganj,81,223773,23.6233333,90.5011111
bd,narsingdi,81,281110,23.9208333,90.7180556
bd,nawabganj,83,142373,24.6,88.2833333
bd,netrakona,81,79025,24.8833333,90.7166667
bd,pabna,81,137904,24.0,89.25
bd,palang,81,67659,23.2166667,90.35
bd,panchagarh,83,48536,26.3333333,88.5666667
bd,parbatipur,83,48026,25.65,88.9166667
bd,patiya,80,51367,22.3030556,91.9783333
bd,phultala,82,37990,22.7,89.5166667
bd,pirganj,83,34610,25.8666667,88.3666667
bd,pirojpur,84,54424,22.5666667,89.9833333
bd,rajshahi,81,700206,24.3666667,88.6
bd,ramganj,80,55247,23.1,90.85
bd,ramgarh,80,28017,22.9702778,91.7966667
bd,rangpur,83,285586,25.75,89.25
bd,raozan,80,25711,22.5661111,91.9325
bd,raypur,80,64659,23.05,90.7666667
bd,sakhipur,81,40874,24.3,90.1833333
bd,sarankhola,84,36475,22.3,89.7833333
bd,sarishabari,81,81334,24.7333333,89.8333333
bd,satkhira,82,128933,22.7166667,89.1
bd,sherpur,81,107431,25.0166667,90.0166667
bd,shibganj,83,35965,24.6833333,88.1666667
bd,sirajganj,81,167501,24.45,89.7166667
bd,sunamganj,86,76491,25.0666667,91.4
bd,teknaf,85,40562,20.8666667,92.3
bd,thakurgaon,83,71104,26.0333333,88.4666667
bd,tungi,81,337620,23.89,90.4058333
be,aalst,08,77534,50.933333,4.033333
be,aalter,08,18802,51.083333,3.45
be,aarschot,02,27656,50.983333,4.833333
be,aartselaar,01,14193,51.133333,4.383333
be,alken,05,10933,50.866667,5.3
be,alveringem,09,4910,51.016667,2.716667
be,amay,04,13307,50.55,5.316667
be,amel,04,5221,50.35,6.15
be,andenne,07,24055,50.483333,5.1
be,anderlues,03,11597,50.4,4.266667
be,anhee,07,7125,50.316667,4.883333
be,ans,04,27297,50.65,5.533333
be,anthisnes,04,4116,50.483333,5.516667
be,antoing,03,7507,50.566667,3.45
be,antwerp,01,459805,51.216667,4.416667
be,anzegem,09,13920,50.833333,3.466667
be,ardooie,09,9161,50.983333,3.2
be,arendonk,01,12247,51.316667,5.083333
be,arlon,06,26179,49.683333,5.816667
be,as,05,7250,51.016667,5.583333
be,asse,02,28985,50.916667,4.2
be,assenede,08,13495,51.233333,3.75
be,assesse,07,6279,50.366667,5.016667
be,ath,03,26681,50.633333,3.783333
be,attert,06,4491,49.766667,5.783333
be,aubange,06,14932,49.583333,5.8
be,aubel,04,4119,50.7,5.85
be,avelgem,09,9106,50.766667,3.433333
be,awans,04,8612,50.666667,5.466667
be,aywaille,04,10636,50.466667,5.666667
be,baarle-hertog,01,2305,51.45,4.933333
be,baelen,04,3928,50.633333,5.966667
be,balen,01,19978,51.166667,5.15
be,bassenge,04,8151,50.766667,5.6
be,bastogne,06,14395,50.0,5.716667
be,beaumont,03,6645,50.233333,4.233333
be,beauraing,07,8242,50.116667,4.966667
be,beauvechain,02,6334,50.783333,4.766667
be,beernem,09,14512,51.15,3.333333
be,beerse,01,16208,51.316667,4.866667
be,beersel,02,23228,50.766667,4.3
be,begijnendijk,02,9178,51.016667,4.766667
be,bekkevoort,02,5714,50.95,4.966667
be,beloeil,03,13405,50.55,3.716667
be,beringen,05,40930,51.05,5.216667
be,berlaar,01,10370,51.116667,4.65
be,berlare,08,13853,51.033333,4.0
be,berloz,04,2770,50.7,5.216667
be,bernissart,03,11588,50.466667,3.633333
be,bertem,02,9215,50.866667,4.633333
be,bertogne,06,2852,50.083333,5.666667
be,bertrix,06,8063,49.85,5.25
be,bever,02,1932,50.916667,4.316667
be,beveren,08,45179,51.216667,4.25
be,beyne-heusay,04,11608,50.616667,5.65
be,bierbeek,02,8994,50.833333,4.766667
be,bievre,07,3207,49.933333,5.016667
be,bilzen,05,29622,50.866667,5.516667
be,binche,03,32030,50.4,4.166667
be,blankenberge,09,18230,51.316667,3.133333
be,blegny,04,12745,50.666667,5.733333
be,bocholt,05,12346,51.166667,5.583333
be,boechout,01,12145,51.166667,4.5
be,bonheiden,01,14260,51.033333,4.533333
be,boom,01,15810,51.083333,4.366667
be,boortmeerbeek,02,11570,50.983333,4.566667
be,borgloon,05,9955,50.8,5.333333
be,bornem,01,19997,51.1,4.233333
be,borsbeek,01,10334,51.2,4.483333
be,bouillon,06,5347,49.8,5.066667
be,boussu,03,20058,50.433333,3.8
be,boutersem,02,7702,50.85,4.833333
be,braine-le-chateau,02,9627,50.683333,4.266667
be,braine-le-comte,03,20133,50.6,4.133333
be,braives,04,5672,50.633333,5.15
be,brasschaat,01,37040,51.283333,4.45
be,brecht,01,25908,51.35,4.633333
be,bredene,09,14862,51.233333,2.966667
be,bree,05,14363,51.133333,5.6
be,brugelette,03,3358,50.6,3.85
be,brugge,09,116709,51.216667,3.233333
be,brunehaut,03,7592,50.5,4.416667
be,brussels,11,1019022,50.833333,4.333333
be,buggenhout,08,13510,51.016667,4.2
be,bullingen,04,5340,50.416667,6.266667
be,burdinne,04,2799,50.583333,5.066667
be,butgenbach,04,5516,50.433333,6.2
be,celles,03,5471,50.716667,3.45
be,cerfontaine,07,4500,50.166667,4.416667
be,chapelle-lez-herlaimont,03,14353,50.466667,4.283333
be,charleroi,03,200132,50.416667,4.433333
be,chastre,02,6243,50.6,4.633333
be,chatelet,03,35238,50.4,4.516667
be,chaudfontaine,04,20960,50.583333,5.633333
be,chaumont-gistoux,02,10943,50.683333,4.733333
be,chievres,03,6045,50.583333,3.8
be,chimay,03,9720,50.05,4.316667
be,chiny,06,4897,49.733333,5.333333
be,ciney,07,14830,50.3,5.1
be,clavier,04,4092,50.416667,5.366667
be,colfontaine,03,19964,50.383333,3.866667
be,comblain-au-pont,04,5308,50.466667,5.583333
be,courcelles,03,29473,50.466667,4.366667
be,court-saint-etienne,02,9353,50.65,4.566667
be,couvin,07,13518,50.05,4.483333
be,crisnee,04,2587,50.716667,5.4
be,dalhem,04,6391,50.716667,5.716667
be,damme,09,10924,51.25,3.283333
be,daverdisse,06,1299,50.016667,5.116667
be,deerlijk,09,11292,50.85,3.35
be,de haan,09,11766,51.266667,3.033333
be,deinze,08,27777,50.983333,3.533333
be,denderleeuw,08,16969,50.883333,4.066667
be,dendermonde,08,43055,51.033333,4.116667
be,dentergem,09,8038,50.966667,3.416667
be,de panne,09,9799,51.1,2.583333
be,de pinte,08,10020,51.0,3.65
be,dessel,01,8707,51.233333,5.116667
be,destelbergen,08,16853,51.05,3.8
be,diepenbeek,05,17699,50.9,5.4
be,diest,02,22516,50.983333,5.05
be,diksmuide,09,15515,51.033333,2.866667
be,dilbeek,02,39482,50.85,4.266667
be,dinant,07,12875,50.266667,4.916667
be,dison,04,13642,50.616667,5.85
be,doische,07,2739,50.133333,4.75
be,donceel,04,2712,50.65,5.316667
be,dour,03,16861,50.4,3.783333
be,drogenbos,02,4843,50.783333,4.316667
be,duffel,01,16011,51.1,4.516667
be,durbuy,06,10251,50.35,5.466667
be,edegem,01,21839,51.15,4.45
be,eeklo,08,19116,51.183333,3.566667
be,eghezee,07,14352,50.6,4.9
be,ellezelles,03,5566,50.733333,3.683333
be,enghien,03,11367,50.7,4.033333
be,engis,04,5737,50.583333,5.416667
be,erezee,06,2930,50.3,5.55
be,erquelinnes,03,9396,50.3,4.116667
be,esneux,04,13497,50.533333,5.566667
be,essen,01,16754,51.466667,4.466667
be,estaimpuis,03,9340,50.7,3.25
be,etalle,06,5228,49.683333,5.6
be,eupen,04,18029,50.633333,6.033333
be,evergem,08,31615,51.116667,3.7
be,faimes,04,3349,50.666667,5.266667
be,farciennes,03,11488,50.433333,4.55
be,fauvillers,06,1952,49.85,5.666667
be,ferrieres,04,4434,50.4,5.6
be,fexhe-le-haut-clocher,04,3082,50.666667,5.4
be,fleron,04,15994,50.616667,5.683333
be,fleurus,03,22080,50.483333,4.533333
be,flobecq,03,3142,50.733333,3.733333
be,floreffe,07,7480,50.433333,4.783333
be,florennes,07,10723,50.25,4.616667
be,florenville,06,5464,49.7,5.3
be,frameries,03,20598,50.4,3.9
be,galmaarden,02,7939,50.75,3.966667
be,gavere,08,11888,50.933333,3.666667
be,gedinne,07,4416,49.983333,4.933333
be,geel,01,34697,51.166667,5.0
be,geer,04,2682,50.666667,5.166667
be,geetbets,02,5813,50.883333,5.116667
be,gembloux,07,21676,50.566667,4.683333
be,genappe,02,14266,50.6,4.45
be,genk,05,63666,50.966667,5.5
be,gent,08,231493,51.05,3.716667
be,geraardsbergen,08,30807,50.766667,3.866667
be,gerpinnes,03,11977,50.333333,4.516667
be,gesves,07,6150,50.4,5.066667
be,gingelom,05,7930,50.75,5.116667
be,gistel,09,11084,51.166667,2.95
be,glabbeek,02,5070,50.866667,4.95
be,gooik,02,8957,50.8,4.116667
be,gouvy,06,4706,50.185,5.941111
be,grez-doiceau,02,12367,50.733333,4.7
be,grimbergen,02,33561,50.933333,4.383333
be,grobbendonk,01,10724,51.2,4.716667
be,haacht,02,13541,50.983333,4.633333
be,haaltert,08,17129,50.9,4.0
be,habay,06,7704,49.733333,5.616667
be,halen,05,8548,50.95,5.1
be,halle,02,34479,50.733333,4.233333
be,hamme,08,22891,51.1,4.133333
be,hamoir,04,3500,50.433333,5.533333
be,hamois,07,6662,50.333333,5.133333
be,hannut,04,14129,50.666667,5.083333
be,harelbeke,09,25978,50.85,3.3
be,hasselt,05,69222,50.933333,5.333333
be,hastiere,07,5147,50.216667,4.833333
be,havelange,07,4790,50.383333,5.233333
be,heers,05,6689,50.75,5.283333
be,heist-op-den-berg,01,37873,51.083333,4.716667
be,hemiksem,01,9504,51.15,4.35
be,hensies,03,6390,50.433333,3.666667
be,herbeumont,06,1612,49.783333,5.233333
be,herentals,01,25912,51.183333,4.833333
be,herent,02,19218,50.9,4.666667
be,herenthout,01,8379,51.15,4.766667
be,herk-de-stad,05,11566,50.933333,5.166667
be,herne,02,6459,50.716667,4.033333
be,heron,04,4305,50.55,5.083333
be,herselt,01,13493,51.05,4.883333
be,herstal,04,36503,50.666667,5.633333
be,herstappe,05,93,50.733333,5.416667
be,herve,04,16544,50.633333,5.8
be,herzele,08,16523,50.883333,3.883333
be,hoegaarden,02,6110,50.783333,4.9
be,hoeilaart,02,10272,50.766667,4.466667
be,hoeselt,05,9265,50.85,5.483333
be,holsbeek,02,9094,50.916667,4.75
be,hooglede,09,9900,50.983333,3.083333
be,hoogstraten,01,18524,51.4,4.766667
be,hotton,06,4969,50.266667,5.45
be,houffalize,06,4614,50.133333,5.783333
be,houthulst,09,8951,50.983333,2.95
be,houyet,07,4505,50.183333,5.016667
be,hove,01,7968,51.15,4.466667
be,huldenberg,02,9137,50.783333,4.583333
be,hulshout,01,9198,51.083333,4.783333
be,huy,04,19973,50.516667,5.233333
be,ichtegem,09,13582,51.1,3.0
be,ieper,09,35089,50.85,2.883333
be,incourt,02,4395,50.7,4.783333
be,ingelmunster,09,10603,50.916667,3.25
be,ittre,02,6014,50.65,4.266667
be,izegem,09,26382,50.916667,3.2
be,jabbeke,09,13488,51.183333,3.083333
be,jalhay,04,7688,50.566667,5.966667
be,jodoigne,02,11930,50.716667,4.866667
be,juprelle,04,8354,50.716667,5.533333
be,jurbise,03,9483,50.533333,3.933333
be,kalmthout,01,17485,51.383333,4.466667
be,kampenhout,02,10784,50.95,4.55
be,kapellen,01,26410,51.316667,4.433333
be,kapelle-op-den-bos,02,8859,51.016667,4.366667
be,kaprijke,08,6114,51.216667,3.6
be,kasterlee,01,17765,51.25,4.95
be,keerbergen,02,12363,51.0,4.616667
be,kinrooi,05,11946,51.15,5.75
be,knesselare,08,7889,51.133333,3.416667
be,knokke-heist,09,33781,51.35,3.266667
be,koekelare,09,8317,51.083333,2.966667
be,koksijde,09,21027,51.1,2.65
be,kontich,01,20290,51.133333,4.45
be,kortemark,09,11937,51.033333,3.033333
be,kortenaken,02,7374,50.916667,5.066667
be,kortenberg,02,17774,50.883333,4.533333
be,kortessem,05,8042,50.866667,5.366667
be,kortrijk,09,73879,50.833333,3.266667
be,kraainem,02,12815,50.866667,4.466667
be,kruibeke,08,14815,51.166667,4.316667
be,kruishoutem,08,8179,50.9,3.516667
be,kuurne,09,12638,50.85,3.283333
be,laarne,08,11600,51.033333,3.85
be,la bruyere,07,8194,50.283333,4.583333
be,la hulpe,02,7415,50.733333,4.483333
be,la louviere,03,76668,50.466667,4.183333
be,lanaken,05,24771,50.883333,5.65
be,landen,02,14458,50.75,5.083333
be,la roche-en-ardenne,06,4200,50.183333,5.583333
be,lebbeke,08,17372,51.0,4.133333
be,ledegem,09,9102,50.85,3.116667
be,lede,08,16813,50.966667,3.983333
be,leglise,06,3865,49.8,5.533333
be,lendelede,09,5393,50.883333,3.233333
be,lennik,02,8818,50.8,4.15
be,lens,03,3902,50.55,3.9
be,leopoldsburg,05,14149,51.116667,5.25
be,lessines,03,17687,50.716667,3.833333
be,leuven,12,92892,50.883333,4.7
be,libin,06,4609,49.983333,5.25
be,lichtervelde,09,8169,51.033333,3.15
be,liedekerke,02,11980,50.866667,4.083333
be,liege,04,182597,50.633333,5.566667
be,lierneux,04,3332,50.283333,5.8
be,lille,01,15466,51.233333,4.833333
be,limbourg,04,5612,50.616667,5.933333
be,lincent,04,2884,50.716667,5.033333
be,linkebeek,02,4823,50.766667,4.333333
be,lint,01,7982,51.133333,4.5
be,lobbes,03,5467,50.35,4.25
be,lochristi,08,19696,51.1,3.833333
be,lokeren,08,37567,51.1,3.983333
be,lommel,05,31993,51.233333,5.3
be,londerzeel,02,17274,51.0,4.3
be,lontzen,04,4862,50.683333,6.0
be,lovendegem,08,9272,51.1,3.6
be,lubbeek,02,13574,50.883333,4.833333
be,lummen,05,13689,50.983333,5.2
be,maaseik,05,23684,51.1,5.8
be,maasmechelen,05,36251,50.816667,5.666667
be,machelen,02,12252,50.916667,4.433333
be,maldegem,08,22092,51.216667,3.45
be,malmedy,04,11514,50.416667,6.033333
be,manage,03,22196,50.5,4.216667
be,manhay,06,3128,50.3,5.666667
be,marche-en-famenne,06,16856,50.2,5.333333
be,marchin,04,5063,50.466667,5.233333
be,martelange,06,1440,49.833333,5.733333
be,mechelen,01,77531,51.033333,4.466667
be,meerhout,01,9346,51.133333,5.083333
be,meise,02,18497,50.933333,4.333333
be,meix-devant-virton,06,2637,49.6,5.483333
be,melle,08,10687,51.0,3.8
be,menen,09,31916,50.8,3.116667
be,merbes-le-chateau,03,3999,50.316667,4.15
be,merchtem,02,14660,50.966667,4.233333
be,merelbeke,08,22047,51.0,3.75
be,merksplas,01,7963,51.366667,4.866667
be,mesen,09,975,50.766667,2.9
be,messancy,06,7144,49.6,5.816667
be,mettet,07,12014,50.316667,4.666667
be,meulebeke,09,10948,50.95,3.283333
be,middelkerke,09,17789,51.183333,2.816667
be,modave,04,3825,50.45,5.3
be,moerbeke,08,5855,51.166667,3.933333
be,mol,01,32659,51.183333,5.1
be,momignies,03,5183,50.033333,4.166667
be,mons,03,91277,50.45,3.933333
be,mont-saint-guibert,02,6557,50.633333,4.616667
be,moorslede,09,10720,50.883333,3.066667
be,morlanwelz,03,18233,50.45,4.233333
be,mortsel,01,24525,51.166667,4.466667
be,mouscron,03,52069,50.733333,3.216667
be,musson,06,4225,49.566667,5.7
be,namur,07,106284,50.466667,4.866667
be,nandrin,04,5480,50.5,5.416667
be,nassogne,06,5081,50.133333,5.35
be,nazareth,08,10890,50.966667,3.6
be,neerpelt,05,16122,51.216667,5.416667
be,neufchateau,06,6416,49.833333,5.433333
be,nevele,08,11153,51.033333,3.55
be,niel,01,8656,51.116667,4.333333
be,nieuwerkerken,05,6466,50.866667,5.183333
be,nieuwpoort,09,10845,51.133333,2.75
be,nijlen,01,20792,51.166667,4.65
be,ninove,08,34795,50.833333,4.016667
be,nivelles,02,24149,50.6,4.333333
be,ohey,07,4324,50.433333,5.133333
be,olen,01,11070,51.15,4.85
be,olne,04,3836,50.583333,5.75
be,onhaye,07,3014,50.25,4.833333
be,oosterzele,08,13151,50.95,3.8
be,oostkamp,09,21489,51.15,3.233333
be,oostrozebeke,09,7489,50.916667,3.333333
be,opglabbeek,05,9452,51.05,5.583333
be,opwijk,02,12045,50.966667,4.183333
be,oreye,04,3373,50.733333,5.366667
be,ostend,09,69011,51.216667,2.916667
be,oudenaarde,08,27935,50.85,3.6
be,oudenburg,09,8752,51.183333,3.0
be,oud-heverlee,02,10533,50.833333,4.666667
be,oud-turnhout,01,12354,51.316667,4.983333
be,ouffet,04,2477,50.433333,5.466667
be,oupeye,04,23594,50.7,5.65
be,overijse,02,23486,50.766667,4.533333
be,overpelt,05,13344,51.216667,5.416667
be,paliseul,06,5037,49.9,5.133333
be,pecq,03,5302,50.683333,3.333333
be,peer,05,15551,51.133333,5.466667
be,pepingen,02,4261,50.75,4.15
be,pepinster,04,9530,50.566667,5.816667
be,peruwelz,03,16647,50.516667,3.583333
be,perwez,02,7340,50.616667,4.816667
be,philippeville,07,8051,50.2,4.533333
be,pittem,09,6589,51.0,3.266667
be,plombieres,04,9596,50.733333,5.95
be,pont-a-celles,03,15909,50.5,4.35
be,poperinge,09,19537,50.85,2.716667
be,profondeville,07,11401,50.383333,4.866667
be,putte,01,15276,51.066667,4.633333
be,puurs,01,15944,51.083333,4.283333
be,quaregnon,03,18491,50.433333,3.85
be,quievrain,03,6560,50.4,3.683333
be,raeren,04,9925,50.683333,6.116667
be,ranst,01,17405,51.2,4.55
be,ravels,01,13560,51.366667,5.0
be,remicourt,04,5050,50.683333,5.333333
be,rendeux,06,2320,50.233333,5.5
be,retie,01,10069,51.266667,5.066667
be,riemst,05,15809,50.8,5.6
be,rijkevorsel,01,10606,51.35,4.766667
be,rixensart,02,21616,50.716667,4.533333
be,rochefort,07,11978,50.166667,5.216667
be,roeselare,09,56016,50.95,3.133333
be,ronse,08,24204,50.75,3.6
be,rotselaar,02,15007,50.95,4.716667
be,rouvroy,06,1946,49.533333,5.5
be,ruiselede,09,5129,51.05,3.4
be,rumes,03,4918,50.55,3.3
be,rumst,01,14521,51.083333,4.416667
be,sainte-ode,06,2310,50.083333,5.533333
be,saint-ghislain,03,22500,50.45,3.816667
be,saint-hubert,06,5538,50.016667,5.383333
be,saint-leger,06,3092,49.616667,5.65
be,saint-nicolas,04,22586,50.633333,5.533333
be,schelle,01,7675,51.133333,4.333333
be,schilde,01,20373,51.233333,4.566667
be,schoten,01,33622,51.25,4.5
be,seneffe,03,11025,50.516667,4.25
be,seraing,04,60737,50.6,5.483333
be,silly,03,7887,50.65,3.916667
be,sint-amands,01,7653,51.05,4.2
be,sint-genesius-rode,02,17990,50.75,4.35
be,sint-gillis-waas,08,17658,51.216667,4.133333
be,sint-katelijne-waver,01,19487,51.066667,4.533333
be,sint-laureins,08,6657,51.25,3.516667
be,sint-lievens-houtem,08,9146,50.916667,3.85
be,sint-martens-latem,08,8303,51.016667,3.633333
be,sint-niklaas,08,69010,51.166667,4.133333
be,sint-pieters-leeuw,02,30446,50.783333,4.233333
be,sint-truiden,05,37859,50.8,5.2
be,soignies,03,24869,50.583333,4.066667
be,sombreffe,07,7452,50.516667,4.6
be,somme-leuze,07,4532,50.333333,5.366667
be,soumagne,04,15237,50.616667,5.75
be,spa,04,10756,50.5,5.866667
be,sprimont,04,12945,50.5,5.666667
be,stabroek,01,17294,51.333333,4.366667
be,staden,09,10786,50.983333,3.016667
be,stavelot,04,6646,50.383333,5.933333
be,steenokkerzeel,02,10566,50.916667,4.516667
be,stekene,08,16989,51.2,4.033333
be,stoumont,04,2970,50.416667,5.8
be,tellin,06,2353,50.083333,5.216667
be,temse,08,26054,51.133333,4.216667
be,tenneville,06,2510,50.1,5.533333
be,ternat,02,14569,50.866667,4.183333
be,tervuren,02,20623,50.816667,4.516667
be,tessenderlo,05,16574,51.066667,5.083333
be,theux,04,11587,50.533333,5.816667
be,thuin,03,14682,50.333333,4.283333
be,tielt,09,19299,51.0,3.316667
be,tienen,02,31743,50.8,4.95
be,tinlot,04,2236,50.483333,5.366667
be,tintigny,06,3538,49.683333,5.516667
be,tongeren,05,29816,50.783333,5.466667
be,torhout,09,18933,51.066667,3.1
be,tournai,03,67720,50.6,3.383333
be,tremelo,02,13721,50.983333,4.7
be,trooz,04,7559,50.566667,5.683333
be,tubize,02,21859,50.683333,4.2
be,turnhout,01,39654,51.316667,4.95
be,vaux-sur-sure,06,4581,49.916667,5.583333
be,verlaine,04,3600,50.6,5.316667
be,verviers,04,52824,50.583333,5.866667
be,veurne,09,11983,51.066667,2.666667
be,vielsalm,06,7291,50.284722,5.918611
be,villers-la-ville,02,9592,50.583333,4.533333
be,villers-le-bouillet,04,6059,50.583333,5.266667
be,vilvoorde,02,36955,50.933333,4.433333
be,virton,06,11259,49.566667,5.533333
be,vise,04,17054,50.733333,5.7
be,vorselaar,01,7238,51.2,4.766667
be,vosselaar,01,10317,51.316667,4.883333
be,waarschoot,08,7762,51.15,3.6
be,waasmunster,08,10460,51.1,4.083333
be,wachtebeke,08,6911,51.166667,3.866667
be,waimes,04,6661,50.416667,6.116667
be,walcourt,01,17501,50.25,4.416667
be,walhain,02,5992,50.616667,4.7
be,wanze,04,12918,50.533333,5.216667
be,waregem,09,35896,50.883333,3.416667
be,waremme,04,13737,50.683333,5.25
be,wasseiges,04,2471,50.616667,5.0
be,waterloo,02,28910,50.716667,4.383333
be,wavre,10,32112,50.716667,4.616667
be,welkenraedt,04,9006,50.65,5.966667
be,wellen,05,6804,50.85,5.316667
be,wellin,06,2937,50.083333,5.116667
be,wemmel,02,14406,50.916667,4.3
be,wervik,09,17340,50.783333,3.033333
be,westerlo,01,22579,51.083333,4.916667
be,wetteren,08,22930,51.0,3.883333
be,wevelgem,09,30954,50.8,3.166667
be,wezembeek-oppem,02,13245,50.85,4.483333
be,wichelen,08,11014,51.0,3.983333
be,wielsbeke,09,8828,50.9,3.366667
be,wijnegem,01,8932,51.233333,4.533333
be,willebroek,01,22808,51.066667,4.366667
be,wingene,09,12887,51.066667,3.266667
be,wommelgem,01,11917,51.2,4.516667
be,wuustwezel,01,18117,51.383333,4.6
be,yvoir,07,8169,50.333333,4.883333
be,zandhoven,01,12306,51.216667,4.65
be,zaventem,02,28188,50.883333,4.466667
be,zedelgem,09,21968,51.15,3.133333
be,zele,08,20236,51.066667,4.033333
be,zelzate,08,11901,51.2,3.816667
be,zemst,02,21096,50.983333,4.466667
be,zingem,08,6588,50.9,3.65
be,zoersel,01,20642,51.266667,4.7
be,zomergem,08,8158,51.116667,3.55
be,zonhoven,05,19922,50.983333,5.35
be,zonnebeke,09,11581,50.866667,2.983333
be,zottegem,08,24434,50.866667,3.8
be,zoutleeuw,02,7897,50.833333,5.1
be,zuienkerke,09,2736,51.266667,3.166667
be,zulte,08,14670,50.916667,3.433333
be,zutendaal,05,6962,50.933333,5.566667
be,zwevegem,09,23358,50.8,3.333333
be,zwijndrecht,01,18249,51.216667,4.333333
bf,banfora,55,63883,10.6333333,-4.7666667
bf,batie,67,6525,9.8833333,-2.9166667
bf,bobo dioulasso,51,370809,11.2,-4.3
bf,bogande,21,9916,12.9713889,-0.1436111
bf,boromo,45,13240,11.75,-2.9333333
bf,boulsa,64,17623,12.6675,-0.5758333
bf,bousse,73,11093,13.1,-3.3833333
bf,dano,52,11224,11.15,-3.0666667
bf,dedougou,63,47235,12.4666667,-3.4666667
bf,diapaga,42,24302,12.0708333,1.7888889
bf,diebougou,48,12814,10.9666667,-3.25
bf,djibo,40,22821,14.1022222,-1.6305556
bf,dori,71,27554,14.0333333,-0.0333333
bf,gaoua,69,7300,10.3,-3.2508333
bf,garango,18,29076,11.8,-0.5505556
bf,gayeri,56,2004,12.6497222,0.4930556
bf,gorom-gorom,33,6743,14.4438889,-0.2361111
bf,gouloure,19,6719,12.2305556,-1.9288889
bf,gourcy,78,17982,13.2166667,-2.35
bf,hounde,74,23617,11.5,-3.5166667
bf,kaya,70,39130,13.0916667,-1.0844444
bf,kokologo,19,25958,12.1897222,-1.8855556
bf,kombissiri,47,19180,12.0655556,-1.3375
bf,kongoussi,15,26338,13.3258333,-1.5347222
bf,koudougou,19,86965,12.25,-2.3666667
bf,koupela,28,19850,12.1794444,-0.3516667
bf,leo,72,21151,11.1,-2.1
bf,manga,44,15269,11.6636111,-1.0730556
bf,nouna,58,21144,12.7333333,-3.8666667
bf,orodara,54,18635,10.9491667,-4.9341667
bf,ouagadougou,53,1031330,12.3702778,-1.5247222
bf,ouahigouya,76,61439,13.5833333,-2.4166667
bf,ouargaye,59,30726,11.5033333,0.0572222
bf,pitmoaga,19,8041,12.2397222,-1.8766667
bf,po,65,21003,11.1697222,-1.145
bf,reo,36,24616,12.3166667,-2.4666667
bf,sapouy,77,3862,11.5544444,-1.7736111
bf,sindou,61,3942,10.6666667,-5.1666667
bf,solenzo,46,10451,12.1833333,-4.0833333
bf,tenkodogo,49,37123,11.78,-0.3697222
bf,toma,46,9926,12.65,-4.4166667
bf,tougan,73,17702,13.0666667,-3.0666667
bf,yako,34,23080,12.9666667,-2.2666667
bf,ziniare,68,12783,12.5822222,-1.2983333
bf,zorgo,20,19789,12.2488889,-0.6158333
bg,ahtopol,39,857,42.1,27.95
bg,ajtos,39,21177,42.7,27.25
bg,alfatar,55,1941,43.95,27.2833333
bg,antonovo,60,1950,43.15,26.1666667
bg,ardino,44,3497,41.5833333,25.1333333
bg,asenovgrad,51,50735,42.0166667,24.8666667
bg,balgarovo,39,2344,42.6166667,27.3
bg,bankja,42,8104,42.7,23.1333333
bg,bansko,38,8412,41.8394444,23.5
bg,batak,48,4103,41.95,24.2166667
bg,batanovci,58,2532,42.6,22.9505556
bg,belene,50,10401,43.65,25.1166667
bg,belica,38,3334,41.9569444,23.5725
bg,belogradcik,63,4865,43.6272222,22.6836111
bg,beloslav,61,7817,43.1833333,27.7
bg,belovo,48,4533,42.2166667,24.0166667
bg,berkovica,47,13574,43.2361111,23.1258333
bg,bjala,53,1753,43.45,25.7333333
bg,bjala,61,10284,42.8833333,27.8833333
bg,blagoevgrad,38,69547,42.0166667,23.1
bg,bobosevo,45,1528,42.1597222,23.0163889
bg,bobovdol,45,7222,42.3697222,23.0172222
bg,boljarovo,65,1474,42.15,26.8166667
bg,borovo,53,2520,43.5,25.8
bg,botevgrad,58,20497,42.9,23.7833333
bg,bracigovo,48,4600,42.0166667,24.3666667
bg,bregovo,63,2629,44.1516667,22.6425
bg,breznik,49,4150,42.7413889,22.8980556
bg,brezovo,51,1920,42.35,25.0833333
bg,buhovo,42,3069,42.7666667,23.5666667
bg,burgas,39,188554,42.5,27.4666667
bg,carevo,39,5023,42.1666667,27.85
bg,cepelare,57,5342,41.7333333,24.6833333
bg,cirpan,59,17622,42.2,25.3333333
bg,dalgopol,61,4911,43.05,27.35
bg,debelec,46,4396,43.0333333,25.6166667
bg,devin,57,6766,41.7333333,24.4
bg,dimitrovgrad,43,42827,42.05,25.6
bg,dimovo,63,1145,43.7416667,22.7269444
bg,dobric,40,92309,43.5666667,27.8333333
bg,dolna banja,58,4471,42.3,23.7666667
bg,dolna mitropolija,50,3746,43.4666667,24.5333333
bg,dolni dabnik,50,5561,43.4,24.4333333
bg,dospat,57,2391,41.65,24.1666667
bg,dragoman,58,3196,42.9188889,22.9316667
bg,drjanovo,41,8017,42.9827778,25.4922222
bg,dulovo,55,6463,43.8166667,27.15
bg,dupnica,45,38656,42.2666667,23.1166667
bg,dve mogili,53,4561,43.6,25.8666667
bg,elena,62,6171,42.9333333,25.8833333
bg,elhovo,65,11723,42.1666667,26.5666667
bg,elin pelin,58,4699,42.6666667,23.6
bg,etropole,58,11024,42.8333333,24.0
bg,gabrovo,41,61109,42.8747222,25.3341667
bg,galabovo,59,9080,42.1333333,25.85
bg,godec,58,4551,43.015,23.0441667
bg,gramada,63,1812,43.8344444,22.6586111
bg,guljanci,50,4135,43.6333333,24.7
bg,gurkovo,43,2933,42.6666667,25.7333333
bg,gurkovo,59,2933,42.6666667,25.8
bg,harmanli,43,20065,41.9333333,25.9
bg,haskovo,43,78865,41.9402778,25.5694444
bg,ihtiman,58,11554,42.4333333,23.8166667
bg,iskar,61,4109,43.3833333,27.4833333
bg,isperih,52,8276,43.7166667,26.8333333
bg,ivajlovgrad,43,4451,41.5333333,26.1333333
bg,jablanica,46,2662,43.0313889,24.1127778
bg,jakoruda,38,5931,42.0252778,23.6841667
bg,jambol,65,75290,42.4833333,26.5
bg,kalofer,51,3736,42.6166667,24.9833333
bg,kameno,39,5133,42.5666667,27.3
bg,kaolinovo,54,1489,43.6166667,27.1166667
bg,karlovo,51,24464,42.6333333,24.8
bg,karnobat,39,19902,42.65,26.9833333
bg,kaspican,54,3211,43.3,27.1833333
bg,kavarna,40,10626,43.4333333,28.3333333
bg,kazanlak,59,50336,42.6166667,25.4
bg,kermen,39,2172,42.5,26.25
bg,kilifarevo,46,2484,42.9833333,25.6333333
bg,kjustendil,45,47315,42.2838889,22.6911111
bg,klisura,51,1708,42.7,24.45
bg,kneza,64,9201,43.5,24.0833333
bg,kocerinovo,45,2431,42.0833333,23.0666667
bg,kojnare,46,3678,43.35,24.1333333
bg,koprivstica,58,2618,42.6333333,24.35
bg,kostenec,58,9660,42.2666667,23.8166667
bg,kostinbrod,58,11239,42.8166667,23.2166667
bg,kotel,56,7117,42.8833333,26.45
bg,kozloduj,64,10602,43.7833333,23.7333333
bg,kresna,38,3756,41.7333333,23.15
bg,kresna,58,3756,41.8,23.1833333
bg,kricim,51,8478,42.05,24.4666667
bg,krivodol,64,2646,43.3744444,23.4844444
bg,krumovgrad,44,4478,41.4666667,25.65
bg,kubrat,52,7327,43.8,26.5
bg,kula,63,3393,43.8877778,22.5213889
bg,laki,51,2720,41.85,24.8166667
bg,letnica,46,3980,43.3116667,25.0733333
bg,levski,50,13203,43.3666667,25.1333333
bg,ljaskovec,62,9000,43.1111111,25.7283333
bg,ljubimec,43,7623,41.8333333,26.0833333
bg,lom,47,24906,43.8138889,23.2361111
bg,lovec,46,39788,43.1333333,24.7166667
bg,loznica,61,2512,43.9666667,27.9166667
bg,lukovit,46,9020,43.2,24.1666667
bg,madan,57,7179,41.5,24.95
bg,magliz,59,3465,42.6,25.55
bg,malko tarnovo,39,2920,41.9833333,27.5333333
bg,melnik,58,251,41.5166667,23.4
bg,mericleri,43,2233,42.1333333,25.5
bg,mezdra,64,8667,43.15,23.7
bg,momcilgrad,44,6974,41.5333333,25.4166667
bg,montana,47,44982,43.4125,23.225
bg,nedelino,57,4676,41.45,25.0833333
bg,nesebar,39,5864,42.65,27.7333333
bg,nikolaevo,46,2834,43.3166667,25.9833333
bg,nikopol,50,4884,43.7,24.9
bg,nova zagora,56,24034,42.4833333,26.0166667
bg,novi iskar,42,13194,42.8,23.35
bg,novi pazar,54,13017,43.35,27.2
bg,obzor,39,1864,42.8166667,27.8833333
bg,omurtag,60,8858,43.1,26.4166667
bg,opaka,60,3353,43.45,26.1666667
bg,orjahovo,64,4464,43.7333333,23.9666667
bg,panagjuriste,48,18755,42.5,24.1833333
bg,pavlikeni,62,12129,43.2427778,25.3219444
bg,pazardzik,48,76254,42.2,24.3333333
bg,pernik,49,82185,42.6,23.0333333
bg,perustica,51,5248,42.05,24.55
bg,pestera,48,19161,42.0333333,24.3
bg,petric,38,29956,41.4,23.2166667
bg,pirdop,58,7923,42.7,24.1833333
bg,plackovci,46,2098,42.8166667,25.4666667
bg,pleven,50,132542,43.4166667,24.6166667
bg,pliska,61,1115,43.3666667,27.1166667
bg,plovdiv,51,332088,42.15,24.75
bg,pomorie,39,12941,42.55,27.65
bg,popovo,60,18836,43.35,26.2333333
bg,pordim,50,2711,43.3833333,24.85
bg,pravec,58,5071,42.8833333,23.9166667
bg,primorsko,39,1807,42.2666667,27.7666667
bg,provadija,61,14253,43.1833333,27.4333333
bg,radnevo,59,13157,42.3,25.9333333
bg,radomir,49,14971,42.5444444,22.9577778
bg,rakitovo,48,8029,41.9833333,24.0833333
bg,rakovski,51,16009,42.3,24.9666667
bg,razgrad,52,31791,43.5333333,26.5166667
bg,razlog,38,12347,41.8902778,23.4791667
bg,rila,45,2936,42.1333333,23.1333333
bg,roman,64,2329,43.15,23.9166667
bg,rudozem,57,4041,41.4833333,24.85
bg,ruse,53,157519,43.8563889,25.9708333
bg,sabla,40,3603,43.5333333,28.5333333
bg,sadovo,51,2461,42.1333333,24.9333333
bg,saedinenie,51,6363,42.2666667,24.55
bg,samokov,58,26582,42.3333333,23.55
bg,sandanski,38,26282,41.5666667,23.2833333
bg,senovo,52,1481,43.65,26.3666667
bg,septemvri,48,8741,42.2166667,24.1
bg,sevlievo,41,23574,43.0258333,25.1136111
bg,silistra,55,38166,44.1166667,27.2666667
bg,simeonovgrad,43,7509,42.0333333,25.8333333
bg,simitli,38,7275,41.8833333,23.1166667
bg,sipka,43,1520,42.7166667,25.3333333
bg,slavjanovo,46,5160,43.4666667,24.8666667
bg,sliven,56,94252,42.6858333,26.3291667
bg,smoljan,57,31870,41.5852778,24.6919444
bg,sofia,42,1062065,42.6833333,23.3166667
bg,sopot,46,10141,43.0166667,24.4166667
bg,sozopol,39,3548,42.4166667,27.7
bg,sredec,39,9362,42.3488889,27.1941667
bg,stara zagora,59,137760,42.4327778,25.6419444
bg,straldza,65,5865,42.6,26.6833333
bg,strazica,62,5006,43.2333333,25.9666667
bg,strelca,48,4699,42.5,24.3166667
bg,suhindol,62,2407,43.1916667,25.1811111
bg,sumen,54,85394,43.2766667,26.9291667
bg,sungurlare,39,3441,42.7666667,26.7833333
bg,suvorovo,61,4514,43.3333333,27.6
bg,svilengrad,43,17378,41.7666667,26.2
bg,svistov,62,29762,43.6230556,25.3538889
bg,svoge,58,7093,42.9666667,23.35
bg,tervel,40,7019,43.75,27.4
bg,teteven,46,10697,42.9166667,24.2666667
bg,topolovgrad,43,5824,42.0833333,26.3333333
bg,tran,49,2608,42.8352778,22.6516667
bg,trastenik,46,5627,43.5166667,24.4666667
bg,trjavna,41,10180,42.8666667,25.5
bg,trojan,46,22431,42.8833333,24.7166667
bg,tutrakan,55,9472,44.05,26.6166667
bg,tvardica,56,6434,42.7,25.9
bg,ugarcin,46,2896,43.1,24.4166667
bg,varna,61,307952,43.2166667,27.9166667
bg,veliki preslav,54,8669,43.1666667,26.8166667
bg,velingrad,48,24129,42.0166667,24.0
bg,vetovo,53,4835,43.7,26.2666667
bg,vidin,63,50315,44.0,22.8725
bg,vraca,64,48995,43.21,23.5625
bg,zavet,52,2979,43.7666667,26.6666667
bg,zemen,49,2145,42.4788889,22.7491667
bg,zlatarica,62,2847,43.05,25.9
bg,zlatica,58,4881,42.7166667,24.1333333
bg,zlatograd,57,7673,41.3833333,25.1
bh,manama,02,147097,26.2361111,50.5830556
bh,sitrah,06,37690,26.1547222,50.6205556
bi,bubanza,09,12728,-3.0833333,29.3944444
bi,bujumbura,02,330539,-3.3761111,29.36
bi,bururi,10,19740,-3.9511111,29.6166667
bi,cankuzo,11,6585,-3.2194444,30.5527778
bi,cibitoke,12,14220,-2.8861111,29.1236111
bi,gitega,13,23168,-3.425,29.9333333
bi,karuzi,14,10705,-3.1013889,30.1647222
bi,kayanza,15,19443,-2.9222222,29.6222222
bi,kirundo,16,6084,-2.5847222,30.0972222
bi,makamba,17,19642,-4.1347222,29.805
bi,muramvya,05,18039,-3.2680556,29.6166667
bi,muyinga,18,71095,-2.8494444,30.3361111
bi,mwaro,05,4924,-3.5263889,29.7027778
bi,ngozi,19,21506,-2.9083333,29.8277778
bi,rumonge,10,6074,-3.9722222,29.4388889
bi,rutana,20,20894,-3.9191667,30.0
bi,ruyigi,21,38459,-3.4763889,30.2486111
bj,abomey,18,82158,7.1833333,1.9833333
bj,abomey-calavi,05,385823,6.45,2.35
bj,allada,02,20094,6.65,2.15
bj,aplahoue,12,19862,6.9333333,1.6833333
bj,athieme,15,13585,6.5833333,1.6666667
bj,banikoara,03,22487,11.3,2.4333333
bj,bassila,01,23616,9.0166667,1.6666667
bj,bembereke,03,24006,10.2288889,2.6652778
bj,beterou,03,13108,9.2,2.2666667
bj,bohicon,18,125116,7.2,2.0666667
bj,come,04,29208,6.4,1.8833333
bj,cotonou,14,690584,6.35,2.4333333
bj,cove,18,38566,7.2333333,2.3
bj,djougou,13,202834,9.705,1.6669444
bj,dogbo,12,41312,6.8166667,1.7833333
bj,kandi,07,109705,11.1341667,2.9386111
bj,ketou,18,22341,7.3666667,2.6
bj,lokossa,15,86987,6.6333333,1.7166667
bj,malanville,03,37117,11.8613889,3.3858333
bj,natitingou,08,80896,10.3066667,1.375
bj,nikki,03,54009,9.9338889,3.2044444
bj,ouidah,09,83506,6.3666667,2.0833333
bj,parakou,10,163759,9.35,2.6166667
bj,pobe,17,32983,6.9666667,2.6833333
bj,sakete,17,30111,6.7166667,2.6666667
bj,savalou,11,30187,7.9333333,1.9666667
bj,save,11,75973,8.0333333,2.4833333
bj,tchaourou,03,20971,8.8833333,2.6
bm,hamilton,03,902,32.2941667,-64.7838889
bm,saint george,06,1802,32.3816667,-64.6780556
bo,abapo,08,2419,-18.8333333,-63.4666667
bo,achacachi,04,8447,-16.05,-68.6833333
bo,aiquile,02,8225,-18.1666667,-65.1666667
bo,arani,02,3906,-17.5666667,-65.7666667
bo,ascension,08,14431,-15.7,-63.0833333
bo,atocha,07,1833,-20.9333333,-66.2333333
bo,bermejo,09,28287,-22.65,-64.3666667
bo,betanzos,07,4847,-19.5505556,-65.4533333
bo,boyuibe,08,3075,-20.4166667,-63.2833333
bo,buena vista,08,4283,-17.45,-63.6666667
bo,camargo,01,4715,-20.65,-65.2166667
bo,camiri,08,27971,-20.05,-63.5166667
bo,capinota,02,5157,-17.7166667,-66.2333333
bo,caracollo,05,4708,-17.65,-67.1666667
bo,caranavi,04,14915,-15.8166667,-67.55
bo,challapata,05,8016,-18.9,-66.7666667
bo,charagua,08,3026,-19.8,-63.2166667
bo,chimore,02,5147,-16.9833333,-65.1333333
bo,chulumani,04,2953,-16.4,-67.5166667
bo,cliza,02,8655,-17.6,-65.9333333
bo,cobija,06,26583,-11.0333333,-68.7333333
bo,cochabamba,02,900440,-17.3833333,-66.15
bo,colomi,02,3923,-17.35,-65.8666667
bo,colquechaca,07,1706,-18.6666667,-66.0166667
bo,colquiri,04,3934,-17.4166667,-67.1333333
bo,comarapa,08,4446,-17.9,-64.4833333
bo,concepcion,08,6901,-16.4333333,-60.9
bo,copacabana,04,4508,-16.15,-69.0833333
bo,coripata,04,2107,-16.3,-67.6
bo,coroico,04,2361,-16.1833333,-67.7333333
bo,cotoca,08,18349,-17.75,-62.9833333
bo,el carmen,08,14297,-17.85,-63.2166667
bo,el torno,08,15544,-17.9833333,-63.3833333
bo,entre rios,09,2685,-21.5333333,-64.2
bo,eucaliptus,04,2373,-17.5833333,-67.5166667
bo,guanay,04,3915,-15.4833333,-67.8833333
bo,guayaramerin,03,36010,-10.8,-65.3833333
bo,huanuni,05,15492,-18.2666667,-66.85
bo,irpa irpa,02,2968,-17.7166667,-66.2666667
bo,jorochito,08,4013,-18.05,-63.4333333
bo,la belgica,08,5504,-17.55,-63.2166667
bo,la guardia,08,10259,-17.9,-63.3333333
bo,lahuachaca,04,3235,-17.3666667,-67.6666667
bo,la paz,04,812819,-16.5,-68.15
bo,limoncito,08,3622,-18.0166667,-63.4
bo,llallagua,07,28070,-18.4166667,-66.6333333
bo,los negros,08,3046,-17.7333333,-63.4333333
bo,machacamarca,05,2045,-18.1666667,-67.0333333
bo,mairana,08,4298,-18.1166667,-63.9333333
bo,mapiri,04,2598,-15.25,-68.1666667
bo,mineros,08,14386,-17.1166667,-63.2333333
bo,mizque,02,2911,-17.9333333,-65.3166667
bo,monteagudo,01,8290,-19.8166667,-63.9833333
bo,montero,08,88623,-17.3333333,-63.25
bo,oruro,05,208687,-17.9833333,-67.15
bo,padilla,01,2920,-19.3,-64.3
bo,pailon,08,9304,-17.65,-62.75
bo,patacamaya,04,12261,-17.2333333,-67.9166667
bo,poopo,05,1720,-18.3666667,-66.9666667
bo,portachuelo,08,11486,-17.35,-63.4
bo,potosi,07,141254,-19.5836111,-65.7530556
bo,puerto pailas,08,2675,-17.65,-62.8
bo,puerto quijarro,08,10393,-17.7833333,-57.7666667
bo,puerto suarez,08,12254,-18.95,-57.8
bo,punata,02,15195,-17.55,-65.8333333
bo,quime,04,2405,-16.9833333,-67.2166667
bo,reyes,03,7376,-14.3166667,-67.3833333
bo,riberalta,03,74018,-10.9833333,-66.1
bo,robore,08,9883,-18.3333333,-59.75
bo,rurrenabaque,03,11750,-14.4666667,-67.5666667
bo,samaipata,08,3250,-18.15,-63.8666667
bo,san borja,03,19641,-14.8166667,-66.85
bo,san carlos,08,4180,-17.4,-63.75
bo,san ignacio,08,23570,-16.3666667,-60.95
bo,san javier,08,7025,-16.3333333,-62.6333333
bo,san joaquin,08,3557,-18.45,-59.55
bo,san jose,08,9749,-17.85,-60.75
bo,san julian,08,7706,-17.7833333,-62.8666667
bo,san lorenzo,09,2921,-21.4333333,-64.7833333
bo,san matias,08,6352,-16.3666667,-58.4
bo,san miguel,08,4906,-16.7,-61.0166667
bo,san pedro,08,2990,-18.2833333,-59.8166667
bo,san rafael,08,2384,-16.75,-60.5666667
bo,san ramon,03,4390,-13.2833333,-64.7166667
bo,san ramon,08,6422,-14.4833333,-63.15
bo,santa barbara,07,2434,-20.9166667,-66.05
bo,santa rita,08,2444,-17.9666667,-63.35
bo,santa rosa,03,4459,-14.1666667,-66.8833333
bo,santa rosa,08,4575,-16.7833333,-61.8
bo,sipe sipe,02,3777,-17.45,-66.3833333
bo,sorata,04,2190,-15.7666667,-68.6333333
bo,sucre,01,224846,-19.0430556,-65.2591667
bo,tarabuco,01,2428,-19.1666667,-64.9166667
bo,tarata,02,8045,-17.6166667,-66.0166667
bo,tarija,09,159275,-21.5166667,-64.75
bo,tipuani,04,2585,-15.55,-68.0
bo,totoral,05,1645,-18.5166667,-66.8666667
bo,trinidad,03,84264,-14.8333333,-64.9
bo,tupiza,07,22234,-21.45,-65.7166667
bo,uncia,07,5142,-18.45,-66.6166667
bo,urubicha,08,3269,-15.3833333,-62.95
bo,uyuni,07,10294,-20.4666667,-66.8333333
bo,villamontes,09,18762,-21.25,-63.5
bo,villazon,07,30254,-22.1,-65.6
bo,viloco,04,1900,-16.95,-67.55
bo,warnes,08,22038,-17.5,-63.1666667
bo,yacuiba,09,82808,-22.0333333,-63.6833333
br,abadiania,29,7062,-16.1,-48.8
br,abaete,15,20371,-19.15,-45.45
br,abaetetuba,16,78052,-1.7,-48.9
br,abreu e lima,30,81960,-7.9,-34.883333
br,acajutiba,05,14349,-11.666667,-38.016667
br,acara,16,12803,-1.95,-48.183333
br,acarau,06,28389,-2.883333,-40.116667
br,acari,22,9159,-6.516667,-36.633333
br,acopiara,06,24562,-6.1,-39.45
br,acu,22,36126,-5.577222,-36.9075
br,acucena,15,14506,-19.066667,-42.533333
br,adamantina,27,31079,-21.683333,-51.066667
br,afogados da ingazeira,30,25060,-7.75,-37.65
br,afonso bezerra,22,6947,-5.498056,-36.509167
br,afonso claudio,08,13543,-20.083333,-41.133333
br,afua,16,7031,-0.166667,-50.383333
br,agrestina,30,14453,-8.45,-35.95
br,agua branca,02,5161,-9.283333,-37.916667
br,agua branca,20,13912,-5.883333,-42.633333
br,aguai,27,27503,-22.066667,-46.966667
br,agua preta,30,16444,-8.7,-35.516667
br,aguas belas,30,22563,-9.116667,-37.116667
br,aguas de lindoia,27,18806,-22.483333,-46.65
br,aguas formosas,15,11512,-17.083333,-40.95
br,aguas vermelhas,15,16410,-15.75,-41.466667
br,agudos,27,30808,-22.466667,-49.0
br,aguia branca,08,2554,-18.983333,-40.733333
br,aimores,15,19133,-19.5,-41.066667
br,alagoa grande,17,16406,-7.05,-35.633333
br,alagoa nova,17,9182,-7.066667,-35.766667
br,alagoinha,17,7474,-6.933333,-35.55
br,alagoinhas,05,122692,-12.116667,-38.433333
br,alcantara,13,5655,-2.4,-44.4
br,alegre,08,19758,-20.766667,-41.533333
br,alegrete,23,77540,-29.766667,-55.766667
br,alem paraiba,15,33907,-21.866667,-42.683333
br,alenquer,16,26291,-1.933333,-54.766667
br,alexandria,22,9769,-6.416667,-38.016667
br,alfenas,15,71407,-21.433333,-45.95
br,alfredo chaves,08,6422,-20.633333,-40.75
br,alhandra,17,10788,-7.433333,-34.9
br,alianca,30,17329,-7.583333,-35.216667
br,almeirim,16,20464,-1.533333,-52.566667
br,almenara,15,29333,-16.183333,-40.7
br,almirante tamandare,18,89500,-25.3,-49.316667
br,alpinopolis,15,13286,-20.866667,-46.383333
br,alta floresta,14,40468,-9.9,-55.9
br,altamira,16,70890,-3.2,-52.2
br,alterosa,15,9277,-21.25,-46.133333
br,altinho,30,11913,-8.483333,-36.066667
br,altinopolis,27,14616,-21.025278,-47.374444
br,alto araguaia,14,8780,-17.316667,-53.2
br,alto longa,20,4435,-5.25,-42.2
br,altonia,18,11242,-23.933333,-53.9
br,alto paraguai,14,6149,-14.5,-56.516667
br,alto parana,18,10888,-23.083333,-52.366667
br,alto piquiri,18,10039,-24.016667,-53.466667
br,altos,20,28769,-5.05,-42.466667
br,alvaraes,04,5527,-3.2,-64.833333
br,alvares machado,27,21642,-22.133333,-51.5
br,alvinopolis,15,12068,-20.1,-43.05
br,alvorada,31,10232,-12.47,-49.082222
br,amambai,11,20261,-23.083333,-55.216667
br,amapa,03,6256,2.05,-50.8
br,amaraji,30,16660,-8.4,-35.45
br,amarante,20,8828,-6.233333,-42.833333
br,amarante do maranhao,13,11510,-5.6,-46.75
br,amargosa,05,22531,-13.033333,-39.6
br,america dourada,05,14018,-11.466667,-41.433333
br,americana,27,196026,-22.740278,-47.334444
br,americo brasiliense,27,34332,-21.716667,-48.116667
br,amontada,06,13520,-3.383333,-39.833333
br,amparo,27,41498,-22.7,-46.783333
br,ampere,18,14275,-25.916667,-53.466667
br,anadia,02,9574,-9.7,-36.3
br,anage,05,3762,-14.6,-41.133333
br,anajatuba,13,5627,-3.266667,-44.616667
br,ananas,31,8874,-6.360278,-47.91
br,ananindeua,16,433956,-1.366667,-48.383333
br,anapolis,29,319592,-16.333333,-48.966667
br,anastacio,11,18817,-20.516667,-55.8
br,andira,18,20758,-23.0488,-50.2276
br,andradas,15,26773,-22.066667,-46.566667
br,andradina,27,52407,-20.9,-51.383333
br,andrelandia,15,10079,-21.733333,-44.3
br,angatuba,27,14476,-23.483333,-48.416667
br,angicos,22,7729,-5.666389,-36.6
br,angra dos reis,21,153637,-23.0,-44.3
br,anicuns,29,15685,-16.466667,-49.966667
br,anori,04,8064,-3.783333,-61.633333
br,antonina,18,16152,-25.4314,-48.7184
br,aparecida,27,34237,-22.8418,-45.2287
br,aparecida do taboado,11,17332,-20.083333,-51.083333
br,apiai,27,18260,-24.511926,-48.844671
br,apodi,22,16757,-5.65,-37.8
br,apucarana,18,107086,-23.55,-51.483333
br,aquidaba,28,10596,-10.283333,-37.033333
br,aquidauana,11,35304,-20.466667,-55.8
br,aquiraz,06,65117,-3.9,-38.366667
br,aracaju,28,490184,-10.916667,-37.066667
br,aracati,06,44294,-4.566667,-37.766667
br,aracatuba,27,170028,-21.2,-50.416667
br,araci,05,15089,-11.333333,-38.95
br,aracoiaba,06,13425,-4.383333,-38.816667
br,aracoiaba,30,13095,-7.8,-35.05
br,aracoiaba da serra,27,15395,-23.5049,-47.6185
br,aracruz,08,58272,-19.816667,-40.266667
br,aracuai,15,22005,-16.866667,-42.066667
br,aragarcas,29,16781,-15.916667,-52.25
br,araguacu,31,7603,-12.894167,-49.773056
br,araguaina,31,114959,-7.16,-48.0575
br,araguari,15,96567,-18.633333,-48.183333
br,araguatins,31,17106,-5.6,-47.933056
br,araioses,13,8667,-2.89,-41.903611
br,arapiraca,02,166566,-9.75,-36.65
br,arapongas,18,97513,-23.383333,-51.45
br,araquari,26,35691,-26.3692,-48.7221
br,arara,17,7641,-6.833333,-35.75
br,ararangua,26,43445,-28.933333,-49.483333
br,araraquara,27,185191,-21.783333,-48.166667
br,araras,27,107465,-22.366667,-47.383333
br,arari,13,16777,-3.466667,-44.783333
br,araripe,06,11860,-7.2,-40.133333
br,araripina,30,38570,-7.55,-40.566667
br,araruama,21,109638,-22.883333,-42.333333
br,araruna,17,7667,-6.533333,-35.733333
br,araua,28,4747,-11.266667,-37.616667
br,araucaria,18,111303,-25.583333,-49.416667
br,araxa,15,82597,-19.583333,-46.916667
br,arcos,15,33356,-20.283333,-45.533333
br,arcoverde,30,57164,-8.416667,-36.916667
br,areado,15,10689,-21.35,-46.15
br,areal,21,11041,-22.228889,-43.106944
br,areia,17,13825,-6.966667,-35.7
br,areia branca,22,18372,-4.953889,-37.132222
br,areia branca,28,7414,-10.766667,-37.316667
br,arenapolis,14,9060,-14.433333,-56.816667
br,ares,22,7231,-6.183333,-35.15
br,arinos,15,10078,-15.916667,-46.066667
br,aripuana,14,27043,-9.166667,-60.633333
br,ariquemes,24,58102,-9.933333,-63.066667
br,armacao dos buzios,21,23463,-22.75,-41.883333
br,aroeiras,17,7019,-7.516667,-35.683333
br,arraial do cabo,21,26164,-22.966667,-42.016667
br,arraias,31,6881,-12.977222,-46.891667
br,arroio do meio,23,16331,-29.4,-51.95
br,arroio dos ratos,23,13405,-30.083333,-51.716667
br,arroio grande,23,16117,-32.233333,-53.083333
br,artur nogueira,27,40404,-22.583333,-47.15
br,aruja,27,72078,-23.4,-46.333333
br,assai,18,12545,-23.366667,-50.816667
br,assare,06,11369,-6.866667,-39.866667
br,assis,27,87473,-22.666667,-50.416667
br,astolfo dutra,15,10999,-21.316667,-42.866667
br,astorga,18,20129,-23.216667,-51.666667
br,atalaia,02,18908,-9.516667,-36.033333
br,atibaia,27,110970,-23.124167,-46.562222
br,augusto correa,16,16280,-1.033333,-46.666667
br,auriflama,27,11971,-20.683333,-50.566667
br,aurora,06,10757,-6.95,-38.966667
br,autazes,04,9614,-3.583333,-59.133333
br,avare,27,81287,-23.083333,-48.916667
br,axixa do tocantins,31,9007,-5.551111,-47.595556
br,bacabal,13,72374,-4.233333,-44.783333
br,bady bassitt,27,14216,-20.933333,-49.466667
br,baependi,15,12853,-21.95,-44.883333
br,bage,23,98943,-31.333333,-54.1
br,baiao,16,12316,-2.683333,-49.683333
br,baixa grande,05,7534,-11.95,-40.183333
br,baixo guandu,08,19292,-19.516667,-41.016667
br,balsas,13,68058,-7.516667,-46.033333
br,bambui,15,18840,-20.016667,-45.966667
br,bananeiras,17,7371,-6.75,-35.616667
br,bandeirantes,18,29495,-23.1,-50.35
br,barao de cocais,15,22387,-19.933333,-43.466667
br,barao de melgaco,14,4353,-16.216667,-55.966667
br,barauna,22,14113,-5.083333,-37.616667
br,barbacena,15,122213,-21.233333,-43.766667
br,barbalha,06,33944,-7.316667,-39.283333
br,barbosa ferraz,18,9048,-24.066667,-52.05
br,barcarena,16,29872,-1.5,-48.666667
br,barcelos,04,7356,-1.0,-62.966667
br,bariri,27,28802,-22.066667,-48.733333
br,barra,05,20895,-11.083333,-43.166667
br,barra bonita,27,37247,-22.483333,-48.533333
br,barra da estiva,05,12618,-13.633333,-41.316667
br,barra de sao francisco,08,20743,-18.75,-40.866667
br,barra do bugres,14,31313,-15.083333,-57.183333
br,barra do corda,13,48902,-5.5,-45.25
br,barra do garcas,14,52402,-15.883333,-52.25
br,barra do pirai,21,87669,-22.466111,-43.827778
br,barra dos coqueiros,28,28590,-10.9,-37.05
br,barra mansa,21,164054,-22.533333,-44.183333
br,barras,20,21597,-4.25,-42.3
br,barra velha,26,17665,-26.6406,-48.6851
br,barreiras,05,158296,-12.133333,-45.0
br,barreirinha,04,11257,-2.793611,-57.068889
br,barreirinhas,13,17437,-2.75,-42.833333
br,barreiros,30,35565,-8.816667,-35.2
br,barretos,27,101222,-20.55,-48.55
br,barrinha,27,26981,-21.2,-48.15
br,barro,06,11519,-6.716667,-38.866667
br,barroquinha,06,12410,-2.983333,-41.083333
br,barroso,15,16975,-21.183333,-43.966667
br,barueri,27,251999,-23.516667,-46.883333
br,bastos,27,17681,-21.933333,-50.716667
br,bataipora,11,7346,-22.333333,-53.283333
br,batalha,02,11820,-9.683333,-37.133333
br,batalha,20,8744,-4.016667,-42.083333
br,batatais,27,51977,-20.883333,-47.616667
br,baturite,06,22417,-4.333333,-38.883333
br,bauru,27,335031,-22.316667,-49.066667
br,bayeux,17,91058,-7.133333,-34.933333
br,bebedouro,27,71863,-20.933333,-48.466667
br,beberibe,06,37028,-4.183333,-38.133333
br,bela cruz,06,12715,-3.05,-40.183333
br,bela vista,11,18127,-22.1,-56.516667
br,bela vista de goias,29,14289,-16.966667,-48.95
br,bela vista do paraiso,18,14332,-23.0,-51.2
br,belem,16,1407737,-1.45,-48.483333
br,belem,17,15550,-6.716667,-35.5
br,belem de sao francisco,30,11124,-8.766667,-38.966667
br,belford roxo,21,466101,-22.762,-43.404654
br,belmonte,05,9806,-15.85,-38.9
br,belo horizonte,15,2373255,-19.916667,-43.933333
br,belo jardim,30,49923,-8.333333,-36.433333
br,belo oriente,15,18471,-19.233333,-42.466667
br,beneditinos,20,5005,-5.45,-42.366667
br,benevides,16,49813,-1.366667,-48.25
br,benjamin constant,04,13998,-4.374444,-70.029722
br,bento goncalves,23,90854,-29.166667,-51.516667
br,bequimao,13,5695,-2.433333,-44.783333
br,bernardino de campos,27,9342,-23.033333,-49.483333
br,betim,15,384038,-19.966667,-44.216667
br,bezerros,30,51437,-8.233333,-35.75
br,bicas,15,12684,-21.716667,-43.066667
br,biguacu,26,51993,-27.5,-48.666667
br,birigui,27,102279,-21.3,-50.316667
br,biritiba-mirim,27,26459,-23.583333,-46.033333
br,blumenau,26,293955,-26.9222,-49.0615
br,boa esperanca,08,9254,-18.55,-40.283333
br,boa esperanca,15,33840,-21.083333,-45.566667
br,boa esperanca do sul,27,10787,-21.983333,-48.383333
br,boa viagem,06,24671,-5.116667,-39.733333
br,boa vista,25,235159,2.816667,-60.666667
br,boca da mata,02,17834,-9.6,-36.25
br,boca do acre,04,14427,-8.75,-67.383333
br,bocaiuva,15,32115,-17.116667,-43.816667
br,bodoco,30,11329,-7.783333,-39.916667
br,boituva,27,48756,-23.283333,-47.683333
br,bom conselho,30,27801,-9.166667,-36.683333
br,bom despacho,15,40304,-19.716667,-45.25
br,bom jardim,13,12343,-7.016667,-46.483333
br,bom jardim,21,11716,-22.15,-42.416667
br,bom jardim,30,13523,-7.783333,-35.583333
br,bom jesus,20,12666,-9.066667,-44.366667
br,bom jesus da lapa,05,40693,-13.25,-43.416667
br,bom jesus do galho,15,12476,-19.833333,-42.316667
br,bom jesus do itabapoana,21,30822,-21.133333,-41.683333
br,bom jesus dos perdoes,27,12422,-23.133333,-46.466667
br,bom sucesso,15,13786,-21.033333,-44.766667
br,bonfim,25,5769,3.083333,-59.95
br,bonito,11,14504,-21.133333,-56.466667
